country,state,city,station,last_update,latitude,longitude,pollutant_id,pollutant_min,pollutant_max,pollutant_avg
India,Andhra_Pradesh,Tirupati,"Vaikuntapuram, Tirupati - APPCB",20-03-2026 16:00,13.615387,79.40923,OZONE,15,32,24
India,Andhra_Pradesh,Vijayawada,"HB Colony, Vijayawada - APPCB",20-03-2026 16:00,16.536107,80.594233,PM2.5,47,184,65
India,Andhra_Pradesh,Vijayawada,"HB Colony, Vijayawada - APPCB",20-03-2026 16:00,16.536107,80.594233,CO,21,46,35
India,Andhra_Pradesh,Vijayawada,"HB Colony, Vijayawada - APPCB",20-03-2026 16:00,16.536107,80.594233,OZONE,22,57,42
India,Andhra_Pradesh,Vijayawada,"Kanuru, Vijayawada - APPCB",20-03-2026 16:00,16.486692,80.699436,OZONE,45,70,58
India,Andhra_Pradesh,Vijayawada,"Rajiv Gandhi Park, Vijayawada - APPCB",20-03-2026 16:00,16.509717,80.612222,SO2,13,22,19
India,Andhra_Pradesh,Vijayawada,"Rajiv Gandhi Park, Vijayawada - APPCB",20-03-2026 16:00,16.509717,80.612222,OZONE,43,71,65
India,Andhra_Pradesh,Vijayawada,"Rajiv Nagar, Vijayawada - APPCB",20-03-2026 16:00,16.554731,80.64911,NO2,20,26,25
India,Andhra_Pradesh,Vijayawada,"Rajiv Nagar, Vijayawada - APPCB",20-03-2026 16:00,16.554731,80.64911,SO2,3,14,10
India,Andhra_Pradesh,Visakhapatnam,"GVM Corporation, Visakhapatnam - APPCB",20-03-2026 16:00,17.72,83.3,PM2.5,14,83,37
India,Andhra_Pradesh,Visakhapatnam,"GVM Corporation, Visakhapatnam - APPCB",20-03-2026 16:00,17.72,83.3,NH3,3,4,3
India,Andhra_Pradesh,Visakhapatnam,"GVM Corporation, Visakhapatnam - APPCB",20-03-2026 16:00,17.72,83.3,SO2,1,101,22
India,Andhra_Pradesh,Rajamahendravaram,"Anand Kala Kshetram, Rajamahendravaram - APPCB",20-03-2026 16:00,16.9872867,81.7363176,NO2,10,35,22
India,Andhra_Pradesh,Rajamahendravaram,"Anand Kala Kshetram, Rajamahendravaram - APPCB",20-03-2026 16:00,16.9872867,81.7363176,CO,12,42,21
India,Andhra_Pradesh,Tirupati,"Vaikuntapuram, Tirupati - APPCB",20-03-2026 16:00,13.615387,79.40923,SO2,12,24,16
India,Assam,Silchar,"Tarapur, Silchar - PCBA",20-03-2026 16:00,24.82827,92.79525,CO,8,52,47
India,Assam,Sivasagar,"Girls College, Sivasagar - PCBA",20-03-2026 16:00,26.987634,94.636574,PM10,20,33,25
India,Assam,Sivasagar,"Girls College, Sivasagar - PCBA",20-03-2026 16:00,26.987634,94.636574,NH3,1,6,4
India,Andhra_Pradesh,Chittoor,"Gangineni Cheruvu, Chittoor - APPCB",20-03-2026 16:00,13.20488,79.097889,SO2,10,20,12
India,Andhra_Pradesh,Chittoor,"Gangineni Cheruvu, Chittoor - APPCB",20-03-2026 16:00,13.20488,79.097889,OZONE,21,38,28
India,Andhra_Pradesh,Eluru,"District Court, Eluru - APPCB",20-03-2026 16:00,16.711754,81.092095,NO2,13,37,21
India,Assam,Nalbari,"Bata Chowk, Nalbari - PCBA",20-03-2026 16:00,26.446912,91.439057,NO2,11,19,14
India,Assam,Nalbari,"Bata Chowk, Nalbari - PCBA",20-03-2026 16:00,26.446912,91.439057,CO,16,28,21
India,Assam,Silchar,"Tarapur, Silchar - PCBA",20-03-2026 16:00,24.82827,92.79525,PM10,40,69,53
India,Bihar,Aurangabad,"Gurdeo Nagar, Aurangabad - BSPCB",20-03-2026 16:00,24.75746,84.366208,SO2,4,21,12
India,Bihar,Begusarai,"Lohiyanagar, Begusarai - BSPCB",20-03-2026 16:00,25.42742023,86.13886079,PM2.5,40,90,63
India,Andhra_Pradesh,Amaravati,"Secretariat, Amaravati - APPCB",20-03-2026 16:00,16.5150833,80.5181667,NH3,NA,NA,NA
India,Andhra_Pradesh,Amaravati,"Secretariat, Amaravati - APPCB",20-03-2026 16:00,16.5150833,80.5181667,SO2,NA,NA,NA
India,Andhra_Pradesh,Amaravati,"Secretariat, Amaravati - APPCB",20-03-2026 16:00,16.5150833,80.5181667,CO,8,40,29
India,Bihar,Araria,"Kharahiya Basti, Araria - BSPCB",20-03-2026 16:00,26.146529,87.454184,OZONE,9,11,10
India,Assam,Guwahati,"Pan Bazaar, Guwahati - PCBA",20-03-2026 16:00,26.1875,91.744194,OZONE,11,28,16
India,Bihar,Patna,"IGSC Planetarium Complex, Patna - BSPCB",20-03-2026 16:00,25.610369,85.132568,CO,12,33,29
India,Bihar,Patna,"Muradpur, Patna - BSPCB",20-03-2026 16:00,25.619651,85.147382,OZONE,15,101,66
India,Bihar,Patna,"Rajbansi Nagar, Patna - BSPCB",20-03-2026 16:00,25.599486,85.113666,PM2.5,85,131,95
India,Bihar,Patna,"Rajbansi Nagar, Patna - BSPCB",20-03-2026 16:00,25.599486,85.113666,PM10,91,129,109
India,Bihar,Patna,"Rajbansi Nagar, Patna - BSPCB",20-03-2026 16:00,25.599486,85.113666,NH3,4,4,4
India,Bihar,Patna,"Samanpura, Patna - BSPCB",20-03-2026 16:00,25.596727,85.085624,NH3,14,21,17
India,Bihar,Purnia,"Mariam Nagar, Purnia - BSPCB",20-03-2026 16:00,25.366336,87.117468,NH3,2,3,3
India,Bihar,Buxar,"Charitra Van, Buxar - BSPCB",20-03-2026 16:00,25.56752,83.966379,CO,16,31,24
India,Bihar,Chhapra,"Darshan Nagar, Chhapra - BSPCB",20-03-2026 16:00,25.7808257,84.7446768,NH3,2,8,5
India,Bihar,Chhapra,"Darshan Nagar, Chhapra - BSPCB",20-03-2026 16:00,25.7808257,84.7446768,SO2,20,22,21
India,Bihar,Chhapra,"Darshan Nagar, Chhapra - BSPCB",20-03-2026 16:00,25.7808257,84.7446768,OZONE,7,32,21
India,Bihar,Gaya,"Collectorate, Gaya - BSPCB",20-03-2026 16:00,24.7955,84.9994,PM2.5,NA,NA,NA
India,Bihar,Gaya,"Kareemganj, Gaya - BSPCB",20-03-2026 16:00,24.792403,84.992416,PM2.5,48,270,103
India,Bihar,Muzaffarpur,"Muzaffarpur Collectorate, Muzaffarpur - BSPCB",20-03-2026 16:00,26.1209,85.3647,PM2.5,90,143,114
India,Bihar,Muzaffarpur,"Muzaffarpur Collectorate, Muzaffarpur - BSPCB",20-03-2026 16:00,26.1209,85.3647,CO,12,102,55
India,Bihar,Patna,"DRM Office Danapur, Patna - BSPCB",20-03-2026 16:00,25.586562,85.043586,NO2,44,54,50
India,Bihar,Patna,"DRM Office Danapur, Patna - BSPCB",20-03-2026 16:00,25.586562,85.043586,CO,38,64,49
India,Bihar,Patna,"Govt. High School Shikarpur, Patna - BSPCB",20-03-2026 16:00,25.592539,85.227158,PM10,112,147,126
India,Bihar,Bhagalpur,"DM Office_Kachari Chowk, Bhagalpur - BSPCB",20-03-2026 16:00,25.251013,86.989001,NO2,5,17,9
India,Bihar,Bhagalpur,"DM Office_Kachari Chowk, Bhagalpur - BSPCB",20-03-2026 16:00,25.251013,86.989001,CO,8,14,10
India,Bihar,Bhagalpur,"DM Office_Kachari Chowk, Bhagalpur - BSPCB",20-03-2026 16:00,25.251013,86.989001,OZONE,9,30,15
India,Bihar,Bihar Sharif,"D M Colony, Bihar Sharif - BSPCB",20-03-2026 16:00,25.204762,85.51496,PM10,27,103,58
India,Bihar,Bihar Sharif,"D M Colony, Bihar Sharif - BSPCB",20-03-2026 16:00,25.204762,85.51496,NO2,9,10,9
India,Bihar,Bihar Sharif,"D M Colony, Bihar Sharif - BSPCB",20-03-2026 16:00,25.204762,85.51496,NH3,3,4,3
India,Bihar,Munger,"Town Hall, Munger - BSPCB",20-03-2026 16:00,25.376776,86.471523,PM10,29,82,54
India,Bihar,Munger,"Town Hall, Munger - BSPCB",20-03-2026 16:00,25.376776,86.471523,CO,26,31,28
India,Bihar,Muzaffarpur,"Buddha Colony, Muzaffarpur - BSPCB",20-03-2026 16:00,26.11442,85.39813,NH3,5,20,16
India,Bihar,Muzaffarpur,"Buddha Colony, Muzaffarpur - BSPCB",20-03-2026 16:00,26.11442,85.39813,SO2,3,11,7
India,Bihar,Muzaffarpur,"Buddha Colony, Muzaffarpur - BSPCB",20-03-2026 16:00,26.11442,85.39813,CO,25,113,28
India,Bihar,Begusarai,"Lohiyanagar, Begusarai - BSPCB",20-03-2026 16:00,25.42742023,86.13886079,OZONE,39,52,46
India,Bihar,Bettiah,"Kamalnath Nagar, Bettiah - BSPCB",20-03-2026 16:00,26.80365,84.51954,PM10,NA,NA,NA
India,Bihar,Bettiah,"Kamalnath Nagar, Bettiah - BSPCB",20-03-2026 16:00,26.80365,84.51954,NH3,NA,NA,NA
India,Bihar,Bettiah,"Kamalnath Nagar, Bettiah - BSPCB",20-03-2026 16:00,26.80365,84.51954,OZONE,22,31,26
India,Bihar,Kishanganj,"SDM Office_Khagra, Kishanganj - BSPCB",20-03-2026 16:00,26.0881305,87.93840336,OZONE,31,34,33
India,Bihar,Manguraha,"Forest Rest House, Manguraha - BSPCB",20-03-2026 16:00,27.308328,84.531742,PM10,102,196,125
India,Bihar,Hajipur,"Industrial Area, Hajipur - BSPCB",20-03-2026 16:00,25.697189,85.2459,PM10,90,185,122
India,Bihar,Hajipur,"Industrial Area, Hajipur - BSPCB",20-03-2026 16:00,25.697189,85.2459,NO2,17,41,23
India,Bihar,Hajipur,"Industrial Area, Hajipur - BSPCB",20-03-2026 16:00,25.697189,85.2459,CO,18,50,31
India,Bihar,Begusarai,"Lohiyanagar, Begusarai - BSPCB",20-03-2026 16:00,25.42742023,86.13886079,NO2,10,17,14
India,Delhi,Delhi,"Commonwealth Sports Complex, Delhi - DPCC",20-03-2026 16:00,28.615828,77.271992,OZONE,1,38,17
India,Delhi,Delhi,"DTU, Delhi - CPCB",20-03-2026 16:00,28.7500499,77.1112615,PM2.5,16,162,58
India,Delhi,Delhi,"DTU, Delhi - CPCB",20-03-2026 16:00,28.7500499,77.1112615,NO2,47,68,59
India,Delhi,Delhi,"DTU, Delhi - CPCB",20-03-2026 16:00,28.7500499,77.1112615,NH3,4,9,7
India,Delhi,Delhi,"DTU, Delhi - CPCB",20-03-2026 16:00,28.7500499,77.1112615,CO,6,20,11
India,Delhi,Delhi,"Dr. Karni Singh Shooting Range, Delhi - DPCC",20-03-2026 16:00,28.498571,77.26484,NH3,9,11,10
India,Delhi,Delhi,"Dr. Karni Singh Shooting Range, Delhi - DPCC",20-03-2026 16:00,28.498571,77.26484,CO,59,82,69
India,Delhi,Delhi,"Dr. Karni Singh Shooting Range, Delhi - DPCC",20-03-2026 16:00,28.498571,77.26484,OZONE,3,69,32
India,Delhi,Delhi,"IGNOU_Maidan Garhi, Delhi - DPCC",20-03-2026 16:00,28.493624,77.201159,CO,114,116,115
India,Delhi,Delhi,"IHBAS, Dilshad Garden, Delhi - CPCB",20-03-2026 16:00,28.6811736,77.3025234,PM2.5,17,313,115
India,Bihar,Siwan,"Chitragupta Nagar, Siwan - BSPCB",20-03-2026 16:00,26.2271665,84.3570427,SO2,8,9,8
India,Bihar,Siwan,"Chitragupta Nagar, Siwan - BSPCB",20-03-2026 16:00,26.2271665,84.3570427,CO,44,124,51
India,Bihar,Siwan,"Chitragupta Nagar, Siwan - BSPCB",20-03-2026 16:00,26.2271665,84.3570427,OZONE,14,15,14
India,Chandigarh,Chandigarh,"Sector 22, Chandigarh - CPCC",20-03-2026 16:00,30.735567,76.775714,OZONE,7,33,24
India,Chhattisgarh,Bhilai,"32Bungalows, Bhilai - CECB",20-03-2026 16:00,21.194815,81.31477,PM2.5,18,37,27
India,Chhattisgarh,Bhilai,"32Bungalows, Bhilai - CECB",20-03-2026 16:00,21.194815,81.31477,NH3,1,1,1
India,Chhattisgarh,Bhilai,"32Bungalows, Bhilai - CECB",20-03-2026 16:00,21.194815,81.31477,OZONE,4,20,14
India,Chhattisgarh,Bhilai,"Civic Center, Bhilai - Bhilai Steel Plant",20-03-2026 16:00,21.185571,81.343175,OZONE,8,17,10
India,Chhattisgarh,Bhilai,"Hathkhoj, Bhilai - CECB",20-03-2026 16:00,21.224231,81.40835,NO2,22,86,45
India,Delhi,Delhi,"Bawana, Delhi - DPCC",20-03-2026 16:00,28.7762,77.051074,PM10,57,181,104
India,Delhi,Delhi,"Bawana, Delhi - DPCC",20-03-2026 16:00,28.7762,77.051074,NO2,7,22,14
India,Delhi,Delhi,"Bawana, Delhi - DPCC",20-03-2026 16:00,28.7762,77.051074,CO,28,46,34
India,Delhi,Delhi,"Burari Crossing, Delhi - IMD",20-03-2026 16:00,28.7256504,77.2011573,PM2.5,5,161,61
India,Delhi,Delhi,"Burari Crossing, Delhi - IMD",20-03-2026 16:00,28.7256504,77.2011573,PM10,23,122,64
India,Delhi,Delhi,"Burari Crossing, Delhi - IMD",20-03-2026 16:00,28.7256504,77.2011573,OZONE,10,478,173
India,Delhi,Delhi,"CRRI Mathura Road, Delhi - IMD",20-03-2026 16:00,28.5512005,77.2735737,PM10,20,139,76
India,Delhi,Delhi,"Cantonment Area, Delhi - DPCC ",20-03-2026 16:00,28.594169,77.1251,PM10,17,107,64
India,Delhi,Delhi,"Cantonment Area, Delhi - DPCC ",20-03-2026 16:00,28.594169,77.1251,NO2,30,228,109
India,Chhattisgarh,Raipur,"Bhatagaon New ISBT, Raipur - CECB",20-03-2026 16:00,21.219665,81.630094,SO2,3,12,4
India,Chhattisgarh,Raipur,"Krishak Nagar, Raipur - CECB",20-03-2026 16:00,21.237755,81.705301,PM10,21,58,39
India,Chhattisgarh,Raipur,"Krishak Nagar, Raipur - CECB",20-03-2026 16:00,21.237755,81.705301,NO2,13,25,18
India,Chhattisgarh,Raipur,"Krishak Nagar, Raipur - CECB",20-03-2026 16:00,21.237755,81.705301,NH3,NA,NA,NA
India,Chhattisgarh,Raipur,"Krishak Nagar, Raipur - CECB",20-03-2026 16:00,21.237755,81.705301,CO,16,39,20
India,Chhattisgarh,Raipur,"Siltara Phase-II, Raipur - CECB",20-03-2026 16:00,21.371751,81.664929,PM10,15,109,61
India,Delhi,Delhi,"Alipur, Delhi - DPCC",20-03-2026 16:00,28.815329,77.15301,NH3,13,16,14
India,Delhi,Delhi,"Anand Vihar, Delhi - DPCC",20-03-2026 16:00,28.647622,77.315809,PM2.5,23,287,134
India,Delhi,Delhi,"Anand Vihar, Delhi - DPCC",20-03-2026 16:00,28.647622,77.315809,CO,56,102,87
India,Delhi,Delhi,"Anand Vihar, Delhi - DPCC",20-03-2026 16:00,28.647622,77.315809,OZONE,8,71,12
India,Delhi,Delhi,"Ashok Vihar, Delhi - DPCC",20-03-2026 16:00,28.695381,77.181665,PM2.5,32,302,86
India,Chhattisgarh,Raipur,"Siltara Phase-II, Raipur - CECB",20-03-2026 16:00,21.371751,81.664929,CO,10,10,10
India,Chhattisgarh,Raipur,"Siltara Phase-II, Raipur - CECB",20-03-2026 16:00,21.371751,81.664929,OZONE,4,34,16
India,Chhattisgarh,Tumidih,"OP Jindal Industrial Park, Tumidih - CECB",20-03-2026 16:00,22.06631475,83.33820077,NO2,NA,NA,NA
India,Chhattisgarh,Tumidih,"OP Jindal Industrial Park, Tumidih - CECB",20-03-2026 16:00,22.06631475,83.33820077,OZONE,5,88,42
India,Chhattisgarh,Chhal,"Nawapara SECL Colony, Chhal - CECB",20-03-2026 16:00,22.118125,83.140608,NO2,10,27,17
India,Chhattisgarh,Chhal,"Nawapara SECL Colony, Chhal - CECB",20-03-2026 16:00,22.118125,83.140608,OZONE,81,81,81
India,Chhattisgarh,Korba,"Rampur, Korba - CECB",20-03-2026 16:00,22.368195,82.746431,CO,14,72,26
India,Bihar,Saharsa,"Police Line, Saharsa - BSPCB",20-03-2026 16:00,25.892357,86.590325,NH3,4,4,4
India,Bihar,Siwan,"Chitragupta Nagar, Siwan - BSPCB",20-03-2026 16:00,26.2271665,84.3570427,NO2,2,2,2
India,Chhattisgarh,Kunjemura,"OP Jindal School, Kunjemura - CECB",20-03-2026 16:00,22.12665,83.483212,NH3,2,2,2
India,Delhi,Delhi,"Nehru Nagar, Delhi - DPCC",20-03-2026 16:00,28.56789,77.250515,CO,52,105,100
India,Delhi,Delhi,"Nehru Nagar, Delhi - DPCC",20-03-2026 16:00,28.56789,77.250515,OZONE,2,65,31
India,Delhi,Delhi,"North Campus, DU, Delhi - IMD",20-03-2026 16:00,28.6573814,77.1585447,PM2.5,1,267,57
India,Delhi,Delhi,"North Campus, DU, Delhi - IMD",20-03-2026 16:00,28.6573814,77.1585447,CO,66,90,73
India,Delhi,Delhi,"Okhla Phase-2, Delhi - DPCC",20-03-2026 16:00,28.530785,77.271255,PM2.5,40,223,77
India,Delhi,Delhi,"Okhla Phase-2, Delhi - DPCC",20-03-2026 16:00,28.530785,77.271255,NO2,41,84,61
India,Delhi,Delhi,"Patparganj, Delhi - DPCC",20-03-2026 16:00,28.623763,77.287209,NH3,8,16,10
India,Delhi,Delhi,"Patparganj, Delhi - DPCC",20-03-2026 16:00,28.623763,77.287209,CO,72,88,77
India,Delhi,Delhi,"Punjabi Bagh, Delhi - DPCC",20-03-2026 16:00,28.674045,77.131023,SO2,43,55,48
India,Delhi,Delhi,"Punjabi Bagh, Delhi - DPCC",20-03-2026 16:00,28.674045,77.131023,OZONE,5,44,26
India,Gujarat,Ahmedabad,"Gyaspur, Ahmedabad - IITM",20-03-2026 16:00,22.977134,72.553024,SO2,1,100,31
India,Gujarat,Ahmedabad,"Gyaspur, Ahmedabad - IITM",20-03-2026 16:00,22.977134,72.553024,CO,1,46,32
India,Gujarat,Ahmedabad,"Gyaspur, Ahmedabad - IITM",20-03-2026 16:00,22.977134,72.553024,OZONE,1,51,5
India,Gujarat,Ahmedabad,"Maninagar, Ahmedabad - GPCB",20-03-2026 16:00,23.002657,72.591912,PM10,49,219,106
India,Gujarat,Ahmedabad,"Maninagar, Ahmedabad - GPCB",20-03-2026 16:00,23.002657,72.591912,CO,11,37,30
India,Gujarat,Ahmedabad,"Raikhad, Ahmedabad - IITM",20-03-2026 16:00,23.020509,72.579261,OZONE,2,42,26
India,Gujarat,Ahmedabad,"Rakhial, Ahmedabad - IITM",20-03-2026 16:00,23.016834,72.625775,NO2,58,135,87
India,Gujarat,Ahmedabad,"Rakhial, Ahmedabad - IITM",20-03-2026 16:00,23.016834,72.625775,NH3,9,14,11
India,Delhi,Delhi,"JNU, Delhi - DPCC",20-03-2026 16:00,28.540721,77.168544,NH3,4,6,5
India,Delhi,Delhi,"JNU, Delhi - DPCC",20-03-2026 16:00,28.540721,77.168544,CO,103,108,105
India,Delhi,Delhi,"Jahangirpuri, Delhi - DPCC",20-03-2026 16:00,28.73282,77.170633,PM2.5,42,321,120
India,Delhi,Delhi,"Jawaharlal Nehru Stadium, Delhi - DPCC",20-03-2026 16:00,28.58028,77.233829,PM10,33,119,68
India,Delhi,Delhi,"Jawaharlal Nehru Stadium, Delhi - DPCC",20-03-2026 16:00,28.58028,77.233829,NO2,26,63,44
India,Delhi,Delhi,"Jawaharlal Nehru Stadium, Delhi - DPCC",20-03-2026 16:00,28.58028,77.233829,SO2,1,19,11
India,Delhi,Delhi,"Mandir Marg, Delhi - DPCC",20-03-2026 16:00,28.636429,77.201067,PM2.5,NA,NA,NA
India,Delhi,Delhi,"Pusa, Delhi - DPCC",20-03-2026 16:00,28.639652,77.146275,NH3,NA,NA,NA
India,Delhi,Delhi,"Pusa, Delhi - DPCC",20-03-2026 16:00,28.639652,77.146275,OZONE,7,59,26
India,Delhi,Delhi,"Pusa, Delhi - IMD",20-03-2026 16:00,28.63611,77.173332,OZONE,1,183,64
India,Delhi,Delhi,"R K Puram, Delhi - DPCC",20-03-2026 16:00,28.563262,77.186937,NH3,7,10,8
India,Delhi,Delhi,"R K Puram, Delhi - DPCC",20-03-2026 16:00,28.563262,77.186937,SO2,2,37,14
India,Delhi,Delhi,"Shadipur, Delhi - CPCB",20-03-2026 16:00,28.6514781,77.1473105,NH3,11,14,12
India,Delhi,Delhi,"Talkatora Garden, Delhi - DPCC",20-03-2026 16:00,28.62181,77.1944633,NH3,6,11,8
India,Delhi,Delhi,"Vivek Vihar, Delhi - DPCC",20-03-2026 16:00,28.672342,77.31526,PM2.5,80,313,154
India,Delhi,Delhi,"Vivek Vihar, Delhi - DPCC",20-03-2026 16:00,28.672342,77.31526,NH3,6,7,6
India,Delhi,Delhi,"Vivek Vihar, Delhi - DPCC",20-03-2026 16:00,28.672342,77.31526,CO,59,69,64
India,Delhi,Delhi,"Vivek Vihar, Delhi - DPCC",20-03-2026 16:00,28.672342,77.31526,OZONE,6,39,10
India,Delhi,Delhi,"Wazirpur, Delhi - DPCC",20-03-2026 16:00,28.699793,77.165453,OZONE,3,73,45
India,Delhi,Delhi,"Sirifort, Delhi - CPCB",20-03-2026 16:00,28.5504249,77.2159377,NH3,11,17,14
India,Delhi,Delhi,"Sonia Vihar, Delhi - DPCC",20-03-2026 16:00,28.710508,77.249485,NO2,10,31,19
India,Delhi,Delhi,"Sonia Vihar, Delhi - DPCC",20-03-2026 16:00,28.710508,77.249485,OZONE,6,40,23
India,Delhi,Delhi,"Sri Aurobindo Marg, Delhi - DPCC",20-03-2026 16:00,28.531346,77.190156,NO2,19,38,28
India,Delhi,Delhi,"Sri Aurobindo Marg, Delhi - DPCC",20-03-2026 16:00,28.531346,77.190156,NH3,6,10,8
India,Delhi,Delhi,"IHBAS, Dilshad Garden, Delhi - CPCB",20-03-2026 16:00,28.6811736,77.3025234,NH3,1,13,8
India,Delhi,Delhi,"ITO, Delhi - CPCB",20-03-2026 16:00,28.628624,77.24106,SO2,12,51,33
India,Delhi,Delhi,"JNU, Delhi - DPCC",20-03-2026 16:00,28.540721,77.168544,PM2.5,4,169,54
India,Delhi,Delhi,"Mundka, Delhi - DPCC",20-03-2026 16:00,28.684678,77.076574,PM10,27,151,74
India,Delhi,Delhi,"Mundka, Delhi - DPCC",20-03-2026 16:00,28.684678,77.076574,NO2,44,107,80
India,Delhi,Delhi,"Mundka, Delhi - DPCC",20-03-2026 16:00,28.684678,77.076574,NH3,7,10,9
India,Delhi,Delhi,"Mundka, Delhi - DPCC",20-03-2026 16:00,28.684678,77.076574,OZONE,2,24,15
India,Delhi,Delhi,"NSUT Jaffarpur, Delhi - DPCC",20-03-2026 16:00,28.594004,76.909423,OZONE,7,54,36
India,Delhi,Delhi,"Narela, Delhi - DPCC",20-03-2026 16:00,28.822836,77.101981,CO,44,58,49
India,Haryana,Bhiwani,"H.B. Colony, Bhiwani - HSPCB",20-03-2026 16:00,28.806223,76.141105,NH3,8,20,10
India,Haryana,Bhiwani,"H.B. Colony, Bhiwani - HSPCB",20-03-2026 16:00,28.806223,76.141105,SO2,1,12,4
India,Haryana,Charkhi Dadri,"Mini Secretariat, Charkhi Dadri - HSPCB",20-03-2026 16:00,28.593883,76.270653,PM10,15,144,79
India,Haryana,Charkhi Dadri,"Mini Secretariat, Charkhi Dadri - HSPCB",20-03-2026 16:00,28.593883,76.270653,SO2,NA,NA,NA
India,Haryana,Dharuhera,"Municipal Corporation Office, Dharuhera -  HSPCB",20-03-2026 16:00,28.2068,76.7997,NH3,9,26,19
India,Haryana,Faridabad,"Sector 11, Faridabad - HSPCB",20-03-2026 16:00,28.376058,77.315741,NO2,29,33,31
India,Haryana,Faridabad,"Sector 11, Faridabad - HSPCB",20-03-2026 16:00,28.376058,77.315741,CO,27,44,41
India,Gujarat,Vatva,"Phase-4 GIDC, Vatva - GPCB",20-03-2026 16:00,22.969611,72.6435,PM10,31,438,155
India,Haryana,Ambala,"Patti Mehar, Ambala - HSPCB",20-03-2026 16:00,30.379589,76.778328,PM2.5,38,101,53
India,Haryana,Ambala,"Patti Mehar, Ambala - HSPCB",20-03-2026 16:00,30.379589,76.778328,NO2,7,12,10
India,Haryana,Ambala,"Patti Mehar, Ambala - HSPCB",20-03-2026 16:00,30.379589,76.778328,NH3,7,8,8
India,Haryana,Ambala,"Patti Mehar, Ambala - HSPCB",20-03-2026 16:00,30.379589,76.778328,SO2,15,31,22
India,Haryana,Ambala,"Patti Mehar, Ambala - HSPCB",20-03-2026 16:00,30.379589,76.778328,CO,21,50,29
India,Haryana,Bahadurgarh,"Arya Nagar, Bahadurgarh - HSPCB",20-03-2026 16:00,28.6701,76.9254,PM10,NA,NA,NA
India,Haryana,Bahadurgarh,"Arya Nagar, Bahadurgarh - HSPCB",20-03-2026 16:00,28.6701,76.9254,NO2,12,13,13
India,Gujarat,Gandhinagar,"Sector-10, Gandhinagar - GPCB",20-03-2026 16:00,23.221714,72.654328,PM2.5,17,88,50
India,Gujarat,Mehsana,"Sadanand Nagar, Mehsana - Nexteng Enviro",20-03-2026 16:00,23.59315,72.372792,NO2,25,52,38
India,Gujarat,Nandesari,"GIDC, Nandesari - Nandesari Ind. Association",20-03-2026 16:00,22.410802,73.097923,NO2,13,344,89
India,Gujarat,Nandesari,"GIDC, Nandesari - Nandesari Ind. Association",20-03-2026 16:00,22.410802,73.097923,SO2,3,33,5
India,Gujarat,Rajkot,"Mavdi, Rajkot - Nexteng Enviro ",20-03-2026 16:00,22.248853,70.776774,NO2,8,35,18
India,Gujarat,Rajkot,"Mavdi, Rajkot - Nexteng Enviro ",20-03-2026 16:00,22.248853,70.776774,NH3,2,3,2
India,Haryana,Faridabad,"Sector 30, Faridabad - HSPCB",20-03-2026 16:00,28.4417,77.3217,NO2,36,39,38
India,Haryana,Faridabad,"Sector 30, Faridabad - HSPCB",20-03-2026 16:00,28.4417,77.3217,NH3,11,12,11
India,Haryana,Fatehabad,"Huda Sector, Fatehabad - HSPCB",20-03-2026 16:00,29.503664,75.467934,NH3,13,15,14
India,Haryana,Fatehabad,"Huda Sector, Fatehabad - HSPCB",20-03-2026 16:00,29.503664,75.467934,SO2,10,11,10
India,Haryana,Gurugram,"NISE Gwal Pahari, Gurugram - IMD",20-03-2026 16:00,28.422681,77.148944,PM10,1,140,67
India,Gujarat,Surat,"Katargam, Surat - Nexteng Enviro",20-03-2026 16:00,21.217779,72.834787,PM2.5,16,176,50
India,Gujarat,Vadodara,"Bapunagar, Vadodara - Nexteng Enviro",20-03-2026 16:00,22.320153,73.216285,SO2,4,62,14
India,Gujarat,Vadodara,"Bapunagar, Vadodara - Nexteng Enviro",20-03-2026 16:00,22.320153,73.216285,CO,44,58,56
India,Gujarat,Bhavnagar,"Vidhyanagar, Bhavnagar - Nexteng Enviro",20-03-2026 16:00,21.755417,72.139056,SO2,4,22,7
India,Gujarat,Gandhinagar,"GIFT City, Gandhinagar - IITM",20-03-2026 16:00,23.163798,72.677768,PM2.5,7,42,25
India,Gujarat,Gandhinagar,"GIFT City, Gandhinagar - IITM",20-03-2026 16:00,23.163798,72.677768,SO2,7,16,12
India,Haryana,Bahadurgarh,"Arya Nagar, Bahadurgarh - HSPCB",20-03-2026 16:00,28.6701,76.9254,NH3,12,13,13
India,Haryana,Bahadurgarh,"Arya Nagar, Bahadurgarh - HSPCB",20-03-2026 16:00,28.6701,76.9254,SO2,7,7,7
India,Gujarat,Ahmedabad,"SAC ISRO Bopal, Ahmedabad - IITM",20-03-2026 16:00,23.041137,72.456691,SO2,4,14,6
India,Haryana,Ballabgarh,"Nathu Colony, Ballabgarh - HSPCB",20-03-2026 16:00,28.3419248,77.319699,NH3,3,3,3
India,Haryana,Hisar,"Urban Estate-II, Hisar - HSPCB",20-03-2026 16:00,29.14056,75.744941,PM2.5,4,71,24
India,Haryana,Jind,"Police Lines, Jind - HSPCB",20-03-2026 16:00,29.307814,76.337619,NO2,27,45,35
India,Haryana,Jind,"Police Lines, Jind - HSPCB",20-03-2026 16:00,29.307814,76.337619,NH3,4,6,5
India,Haryana,Jind,"Police Lines, Jind - HSPCB",20-03-2026 16:00,29.307814,76.337619,CO,1,16,5
India,Haryana,Jind,"Police Lines, Jind - HSPCB",20-03-2026 16:00,29.307814,76.337619,OZONE,6,21,14
India,Haryana,Kaithal,"Rishi Nagar, Kaithal - HSPCB",20-03-2026 16:00,29.8006,76.4155,PM2.5,15,51,30
India,Haryana,Karnal,"Sector-12, Karnal - HSPCB",20-03-2026 16:00,29.6953,77.0027,NH3,6,7,6
India,Haryana,Karnal,"Sector-12, Karnal - HSPCB",20-03-2026 16:00,29.6953,77.0027,CO,12,16,13
India,Haryana,Kurukshetra,"Sector-7, Kurukshetra - HSPCB",20-03-2026 16:00,29.966942,76.875879,PM10,44,81,61
India,Karnataka,Bengaluru,"Bapuji Nagar, Bengaluru - KSPCB",20-03-2026 16:00,12.951913,77.539784,PM10,38,250,100
India,Karnataka,Bengaluru,"Bapuji Nagar, Bengaluru - KSPCB",20-03-2026 16:00,12.951913,77.539784,NO2,13,25,16
India,Karnataka,Bengaluru,"Hebbal, Bengaluru - KSPCB",20-03-2026 16:00,13.029152,77.585901,OZONE,7,10,10
India,Karnataka,Bengaluru,"Hombegowda Nagar, Bengaluru - KSPCB",20-03-2026 16:00,12.938539,77.5901,PM2.5,41,129,72
India,Karnataka,Bengaluru,"Jayanagar 5th Block, Bengaluru - KSPCB",20-03-2026 16:00,12.920984,77.584908,NH3,2,3,2
India,Karnataka,Bengaluru,"Jayanagar 5th Block, Bengaluru - KSPCB",20-03-2026 16:00,12.920984,77.584908,SO2,1,26,8
India,Karnataka,Bengaluru,"Jigani, Bengaluru - KSPCB",20-03-2026 16:00,12.7816279,77.6299145,PM2.5,NA,NA,NA
India,Karnataka,Bengaluru,"Jigani, Bengaluru - KSPCB",20-03-2026 16:00,12.7816279,77.6299145,NO2,NA,NA,NA
India,Haryana,Palwal,"Shyam Nagar, Palwal - HSPCB",20-03-2026 16:00,28.1485564,77.3320667,OZONE,8,17,8
India,Haryana,Panchgaon,"Amity University, Panchgaon - IITM",20-03-2026 16:00,28.3153,76.9143,PM2.5,24,95,45
India,Haryana,Panchkula,"Sector-6, Panchkula - HSPCB ",20-03-2026 16:00,30.7057778,76.85318056,PM2.5,NA,NA,NA
India,Haryana,Panchkula,"Sector-6, Panchkula - HSPCB ",20-03-2026 16:00,30.7057778,76.85318056,CO,11,18,15
India,Haryana,Panchkula,"Sector-6, Panchkula - HSPCB ",20-03-2026 16:00,30.7057778,76.85318056,OZONE,1,6,3
India,Haryana,Panipat,"Sector-18, Panipat - HSPCB",20-03-2026 16:00,29.432304,76.972765,NO2,NA,NA,NA
India,Haryana,Gurugram,"Sector-51, Gurugram - HSPCB",20-03-2026 16:00,28.4227,77.0667,PM2.5,45,263,135
India,Haryana,Gurugram,"Sector-51, Gurugram - HSPCB",20-03-2026 16:00,28.4227,77.0667,NH3,6,10,8
India,Haryana,Gurugram,"Sector-51, Gurugram - HSPCB",20-03-2026 16:00,28.4227,77.0667,SO2,5,11,8
India,Haryana,Gurugram,"Teri Gram, Gurugram - HSPCB",20-03-2026 16:00,28.4275,77.1465,PM10,NA,NA,NA
India,Haryana,Gurugram,"Teri Gram, Gurugram - HSPCB",20-03-2026 16:00,28.4275,77.1465,SO2,NA,NA,NA
India,Haryana,Gurugram,"Vikas Sadan, Gurugram - HSPCB",20-03-2026 16:00,28.4501238,77.0263051,PM2.5,22,136,60
India,Haryana,Yamuna Nagar,"Gobind Pura, Yamuna Nagar - HSPCB",20-03-2026 16:00,30.1480566,77.2893471,OZONE,8,33,33
India,Himachal Pradesh,Baddi,"HIMUDA Complex Phase-1, Baddi - HPPCB",20-03-2026 16:00,30.943887,76.801991,PM10,10,139,57
India,Himachal Pradesh,Baddi,"HIMUDA Complex Phase-1, Baddi - HPPCB",20-03-2026 16:00,30.943887,76.801991,CO,42,80,54
India,Haryana,Mandikhera,"General Hospital, Mandikhera(Nuh) - HSPCB",20-03-2026 16:00,27.9002,76.9938,PM2.5,26,83,48
India,Haryana,Mandikhera,"General Hospital, Mandikhera(Nuh) - HSPCB",20-03-2026 16:00,27.9002,76.9938,PM10,29,93,53
India,Haryana,Mandikhera,"General Hospital, Mandikhera(Nuh) - HSPCB",20-03-2026 16:00,27.9002,76.9938,NH3,12,14,13
India,Haryana,Narnaul,"Shastri Nagar, Narnaul - HSPCB",20-03-2026 16:00,28.060249,76.113115,NO2,44,66,54
India,Jharkhand,Jorapokhar,"Tata Stadium, Jorapokhar - JSPCB",20-03-2026 16:00,23.707909,86.41467,PM10,NA,NA,NA
India,Jharkhand,Jorapokhar,"Tata Stadium, Jorapokhar - JSPCB",20-03-2026 16:00,23.707909,86.41467,NO2,NA,NA,NA
India,Jharkhand,Jorapokhar,"Tata Stadium, Jorapokhar - JSPCB",20-03-2026 16:00,23.707909,86.41467,NH3,NA,NA,NA
India,Karnataka,Bagalkot,"Vidayagiri, Bagalkot - KSPCB",20-03-2026 16:00,16.172806,75.659694,NH3,1,1,1
India,Jammu_and_Kashmir,Srinagar,"Khunmoh, Srinagar - JKPCC",20-03-2026 16:00,34.06313,74.96017,SO2,NA,NA,NA
India,Haryana,Sonipat,"Murthal, Sonipat - HSPCB",20-03-2026 16:00,29.0272,77.0621,PM10,107,199,154
India,Kerala,Thrissur,"Corporation Ground, Thrissur - Kerala PCB",20-03-2026 16:00,10.5324,76.2159,OZONE,30,31,31
India,Madhya Pradesh,Bhopal,"Idgah Hills, Bhopal - MPPCB",20-03-2026 16:00,23.264759,77.381568,PM10,36,220,97
India,Madhya Pradesh,Bhopal,"Paryavaran Parisar, Bhopal - MPPCB",20-03-2026 16:00,23.210494,77.425409,NO2,19,72,28
India,Madhya Pradesh,Bhopal,"Paryavaran Parisar, Bhopal - MPPCB",20-03-2026 16:00,23.210494,77.425409,SO2,18,30,25
India,Madhya Pradesh,Bhopal,"T T Nagar, Bhopal - MPPCB",20-03-2026 16:00,23.233584,77.400574,NO2,13,43,21
India,Madhya Pradesh,Bhopal,"T T Nagar, Bhopal - MPPCB",20-03-2026 16:00,23.233584,77.400574,SO2,8,33,18
India,Madhya Pradesh,Bhopal,"T T Nagar, Bhopal - MPPCB",20-03-2026 16:00,23.233584,77.400574,OZONE,44,259,98
India,Madhya Pradesh,Damoh,"Shrivastav Colony, Damoh - MPPCB",20-03-2026 16:00,23.81748678,79.446246,CO,2,8,5
India,Karnataka,Dharwad,"Kalabhavan, Dharwad - KSPCB",20-03-2026 16:00,15.459706,75.008381,OZONE,30,38,35
India,Karnataka,Kalaburagi,"Mahatma Basaveswar Colony, Kalaburgi - KSPCB",20-03-2026 16:00,17.336318,76.847397,OZONE,12,21,20
India,Karnataka,Koppal,"Diwator Nagar, Koppal - KSPCB",20-03-2026 16:00,15.34763,76.181767,PM10,NA,NA,NA
India,Karnataka,Madikeri,"Stuart Hill, Madikeri - KSPCB",20-03-2026 16:00,12.415911,75.73505,PM10,23,53,36
India,Karnataka,Madikeri,"Stuart Hill, Madikeri - KSPCB",20-03-2026 16:00,12.415911,75.73505,SO2,7,7,7
India,Karnataka,Mangalore,"Kadri, Mangalore - KSPCB",20-03-2026 16:00,12.88925,74.853,NH3,2,3,3
India,Karnataka,Mangalore,"Kadri, Mangalore - KSPCB",20-03-2026 16:00,12.88925,74.853,OZONE,18,80,52
India,Madhya Pradesh,Indore,"Chhoti Gwaltoli, Indore - MPPCB",20-03-2026 16:00,22.431,75.5213,NH3,22,27,24
India,Madhya Pradesh,Indore,"Chhoti Gwaltoli, Indore - MPPCB",20-03-2026 16:00,22.431,75.5213,SO2,5,22,10
India,Madhya Pradesh,Indore,"Chhoti Gwaltoli, Indore - MPPCB",20-03-2026 16:00,22.431,75.5213,CO,20,48,30
India,Madhya Pradesh,Indore,"Maguda Nagar, Indore - IMC",20-03-2026 16:00,22.7524,75.8872,PM2.5,NA,NA,NA
India,Madhya Pradesh,Indore,"Residency Area, Indore - IMC",20-03-2026 16:00,22.7084,75.8815,NO2,25,36,31
India,Madhya Pradesh,Jabalpur,"Govindh Bhavan Colony, Jabalpur - JMC",20-03-2026 16:00,23.163174,79.973061,NO2,1,18,13
India,Karnataka,Mysuru,"Hebbal 1st Stage, Mysuru - KSPCB",20-03-2026 16:00,12.21041,76.37376,PM10,30,70,45
India,Karnataka,Mysuru,"Hebbal 1st Stage, Mysuru - KSPCB",20-03-2026 16:00,12.21041,76.37376,NO2,15,27,18
India,Karnataka,Ramanagara,"Vijay Nagar, Ramanagara - KSPCB",20-03-2026 16:00,12.733409,77.298051,PM10,28,79,45
India,Karnataka,Ramanagara,"Vijay Nagar, Ramanagara - KSPCB",20-03-2026 16:00,12.733409,77.298051,NH3,3,4,3
India,Karnataka,Ramanagara,"Vijay Nagar, Ramanagara - KSPCB",20-03-2026 16:00,12.733409,77.298051,OZONE,20,65,58
India,Karnataka,Udupi,"Brahmagiri, Udupi - KSPCB",20-03-2026 16:00,13.34194444,74.74694444,PM10,32,70,50
India,Kerala,Thiruvananthapuram,"Kariavattom, Thiruvananthapuram - Kerala PCB",20-03-2026 16:00,8.5637,76.8865,NO2,6,7,6
India,Kerala,Thiruvananthapuram,"Kariavattom, Thiruvananthapuram - Kerala PCB",20-03-2026 16:00,8.5637,76.8865,CO,35,76,54
India,Kerala,Thiruvananthapuram,"Kariavattom, Thiruvananthapuram - Kerala PCB",20-03-2026 16:00,8.5637,76.8865,OZONE,30,31,31
India,Kerala,Thrissur,"Corporation Ground, Thrissur - Kerala PCB",20-03-2026 16:00,10.5324,76.2159,PM2.5,39,49,44
India,Kerala,Thrissur,"Corporation Ground, Thrissur - Kerala PCB",20-03-2026 16:00,10.5324,76.2159,PM10,66,83,75
India,Kerala,Eloor,"Udyogamandal, Eloor - Kerala PCB",20-03-2026 16:00,10.073232,76.302765,PM10,67,77,73
India,Kerala,Eloor,"Udyogamandal, Eloor - Kerala PCB",20-03-2026 16:00,10.073232,76.302765,NO2,6,7,6
India,Kerala,Eloor,"Udyogamandal, Eloor - Kerala PCB",20-03-2026 16:00,10.073232,76.302765,SO2,1,1,1
India,Kerala,Kannur,"Thavakkara, Kannur - Kerala PCB",20-03-2026 16:00,11.875,75.3732,PM2.5,85,95,92
India,Karnataka,Chamarajanagar,"Urban, Chamarajanagar - KSPCB",20-03-2026 16:00,11.55358,76.55521,NH3,1,3,2
India,Karnataka,Chamarajanagar,"Urban, Chamarajanagar - KSPCB",20-03-2026 16:00,11.55358,76.55521,SO2,3,5,4
India,Karnataka,Chikkaballapur,"Chikkaballapur Rural, Chikkaballapur - KSPCB",20-03-2026 16:00,13.428828,77.731418,NO2,8,42,18
India,Madhya Pradesh,Gwalior,"City Center, Gwalior - MPPCB",20-03-2026 16:00,26.203442,78.193251,PM2.5,28,97,58
India,Madhya Pradesh,Gwalior,"City Center, Gwalior - MPPCB",20-03-2026 16:00,26.203442,78.193251,PM10,35,192,79
India,Madhya Pradesh,Gwalior,"City Center, Gwalior - MPPCB",20-03-2026 16:00,26.203442,78.193251,NO2,32,119,49
India,Madhya Pradesh,Gwalior,"City Center, Gwalior - MPPCB",20-03-2026 16:00,26.203442,78.193251,CO,17,108,33
India,Kerala,Kollam,"Polayathode, Kollam - Kerala PCB",20-03-2026 16:00,8.8787,76.6073,PM10,69,81,76
India,Kerala,Kollam,"Polayathode, Kollam - Kerala PCB",20-03-2026 16:00,8.8787,76.6073,SO2,2,3,2
India,Madhya Pradesh,Katni,"Gole Bazar, Katni - MPPCB",20-03-2026 16:00,23.50016,80.23284,PM2.5,NA,NA,NA
India,Madhya Pradesh,Katni,"Gole Bazar, Katni - MPPCB",20-03-2026 16:00,23.50016,80.23284,OZONE,32,114,56
India,Madhya Pradesh,Pithampur,"Sector-2 Industrial Area, Pithampur - MPPCB",20-03-2026 16:00,22.624758,75.675238,PM10,62,296,135
India,Madhya Pradesh,Ratlam,"Shasthri Nagar, Ratlam - IPCA Lab",20-03-2026 16:00,23.331731,75.045981,SO2,41,48,43
India,Madhya Pradesh,Sagar,"Civil Lines, Sagar - MPPCB",20-03-2026 16:00,23.838586,78.759431,PM10,22,117,65
India,Madhya Pradesh,Sagar,"Civil Lines, Sagar - MPPCB",20-03-2026 16:00,23.838586,78.759431,CO,16,44,17
India,Madhya Pradesh,Sagar,"Civil Lines, Sagar - MPPCB",20-03-2026 16:00,23.838586,78.759431,OZONE,67,139,87
India,Maharashtra,Akola,"Ramdaspeth, Akola - MPCB",20-03-2026 16:00,20.719516,77.000253,NH3,6,9,7
India,Maharashtra,Ambernath,"Chinchpada, Ambernath - MPCB",20-03-2026 16:00,19.215784,73.199781,PM10,31,98,53
India,Maharashtra,Ambernath,"Chinchpada, Ambernath - MPCB",20-03-2026 16:00,19.215784,73.199781,CO,6,23,10
India,Maharashtra,Amravati,"Shivneri Colony, Amravati - MPCB",20-03-2026 16:00,20.9402359,77.7895248,NO2,7,50,16
India,Maharashtra,Amravati,"Shivneri Colony, Amravati - MPCB",20-03-2026 16:00,20.9402359,77.7895248,NH3,1,4,2
India,Maharashtra,Aurangabad,"MIDC Chilkalthana, Aurangabad - MPCB",20-03-2026 16:00,19.87562,75.38731,PM10,32,84,58
India,Maharashtra,Aurangabad,"MIDC Chilkalthana, Aurangabad - MPCB",20-03-2026 16:00,19.87562,75.38731,CO,7,14,10
India,Maharashtra,Hingoli,"Ashta Vinayak Nagar, Hingoli - MPCB",20-03-2026 16:00,19.710842,77.151824,PM2.5,5,48,17
India,Maharashtra,Hingoli,"Ashta Vinayak Nagar, Hingoli - MPCB",20-03-2026 16:00,19.710842,77.151824,CO,9,20,14
India,Maharashtra,Jalgaon,"Prabhat Colony, Jalgaon - MPCB",20-03-2026 16:00,21.001264,75.565602,PM2.5,39,292,79
India,Maharashtra,Jalgaon,"Prabhat Colony, Jalgaon - MPCB",20-03-2026 16:00,21.001264,75.565602,NH3,2,3,2
India,Maharashtra,Jalgaon,"Prabhat Colony, Jalgaon - MPCB",20-03-2026 16:00,21.001264,75.565602,OZONE,4,80,48
India,Maharashtra,Kalyan,"Khadakpada, Kalyan - MPCB",20-03-2026 16:00,19.25292,73.142019,PM10,20,82,46
India,Maharashtra,Kalyan,"Khadakpada, Kalyan - MPCB",20-03-2026 16:00,19.25292,73.142019,NO2,36,37,36
India,Maharashtra,Boisar,"Khaira, Boisar - MPCB",20-03-2026 16:00,19.786089,72.757971,NH3,3,7,4
India,Maharashtra,Boisar,"Khaira, Boisar - MPCB",20-03-2026 16:00,19.786089,72.757971,OZONE,4,39,18
India,Maharashtra,Chandrapur,"MIDC Khutala, Chandrapur - MPCB",20-03-2026 16:00,19.9775302,79.2337086,CO,36,41,39
India,Maharashtra,Dhule,"Deopur, Dhule - MPCB",20-03-2026 16:00,20.918946,74.776388,NO2,2,11,5
India,Maharashtra,Dhule,"Deopur, Dhule - MPCB",20-03-2026 16:00,20.918946,74.776388,SO2,3,11,7
India,Maharashtra,Dombivli,"Kalu Nagar, Dombivli - MPCB",20-03-2026 16:00,19.2268427,73.0788456,NH3,1,1,1
India,Madhya Pradesh,Sagar,"Deen Dayal Nagar, Sagar - MPPCB",20-03-2026 16:00,23.8640158,78.80289321,NO2,1,65,16
India,Madhya Pradesh,Satna,"Bandhavgar Colony, Satna - Birla Cement",20-03-2026 16:00,24.58434363,80.8549414,NO2,12,13,12
India,Madhya Pradesh,Singrauli,"Suryakiran Bhawan NCL, Singrauli - MPPCB",20-03-2026 16:00,24.10897,82.64558,PM10,75,343,178
India,Madhya Pradesh,Ujjain,"Mahashweta Nagar, Ujjain - MPPCB",20-03-2026 16:00,23.1633321,75.800225,NH3,13,18,15
India,Maharashtra,Aurangabad,"Rachnakar Colony, Aurangabad - MPCB",20-03-2026 16:00,19.863756,75.321188,NH3,4,6,5
India,Maharashtra,Badlapur,"Katrap, Badlapur - MPCB",20-03-2026 16:00,19.16485,73.23409,PM2.5,34,78,44
India,Maharashtra,Badlapur,"Katrap, Badlapur - MPCB",20-03-2026 16:00,19.16485,73.23409,NH3,4,8,6
India,Maharashtra,Badlapur,"Katrap, Badlapur - MPCB",20-03-2026 16:00,19.16485,73.23409,SO2,2,11,6
India,Maharashtra,Beed,"Bir, Beed - MPCB",20-03-2026 16:00,18.988474,75.753873,PM10,20,89,43
India,Maharashtra,Belapur,"CBD Belapur, Belapur - MPCB",20-03-2026 16:00,19.0243902,73.0406721,CO,44,56,52
India,Maharashtra,Bhiwandi,"Gokul Nagar, Bhiwandi - MPCB",20-03-2026 16:00,19.309073,73.057223,PM2.5,22,82,48
India,Maharashtra,Bhiwandi,"Gokul Nagar, Bhiwandi - MPCB",20-03-2026 16:00,19.309073,73.057223,PM10,46,140,88
India,Maharashtra,Bhiwandi,"Gokul Nagar, Bhiwandi - MPCB",20-03-2026 16:00,19.309073,73.057223,SO2,5,17,10
India,Madhya Pradesh,Jabalpur,"Gupteshwar, Jabalpur - JMC",20-03-2026 16:00,23.142888,79.916147,SO2,10,22,14
India,Madhya Pradesh,Jabalpur,"Suhagi, Jabalpur - JMC",20-03-2026 16:00,23.218135,79.95777,NH3,2,9,4
India,Madhya Pradesh,Jabalpur,"Govindh Bhavan Colony, Jabalpur - JMC",20-03-2026 16:00,23.163174,79.973061,NH3,2,2,2
India,Maharashtra,Mumbai,"Siddharth Nagar-Worli, Mumbai - IITM",20-03-2026 16:00,19.000083,72.813993,PM10,NA,NA,NA
India,Maharashtra,Mumbai,"Siddharth Nagar-Worli, Mumbai - IITM",20-03-2026 16:00,19.000083,72.813993,OZONE,42,67,50
India,Maharashtra,Mumbai,"Sion, Mumbai - MPCB",20-03-2026 16:00,19.047,72.8746,PM2.5,18,52,32
India,Maharashtra,Mumbai,"Sion, Mumbai - MPCB",20-03-2026 16:00,19.047,72.8746,NH3,7,7,7
India,Maharashtra,Mumbai,"Sion, Mumbai - MPCB",20-03-2026 16:00,19.047,72.8746,OZONE,18,35,26
India,Maharashtra,Mumbai,"Worli, Mumbai -MPCB",20-03-2026 16:00,18.994218,72.8158167,PM2.5,10,37,24
India,Maharashtra,Nagpur,"Ambazari, Nagpur - MPCB",20-03-2026 16:00,21.121801,79.04952,PM2.5,53,117,72
India,Maharashtra,Nagpur,"Mahal, Nagpur - MPCB",20-03-2026 16:00,21.14472,79.107595,PM10,33,414,121
India,Maharashtra,Nagpur,"Mahal, Nagpur - MPCB",20-03-2026 16:00,21.14472,79.107595,SO2,18,69,34
India,Maharashtra,Nagpur,"Mahal, Nagpur - MPCB",20-03-2026 16:00,21.14472,79.107595,CO,7,120,31
India,Maharashtra,Kalyan,"Pimpleshwar Mandir, Kalyan - MPCB",20-03-2026 16:00,19.192056,72.9585188,SO2,10,14,12
India,Maharashtra,Kolhapur,"Shivaji University, Kolhapur - MPCB",20-03-2026 16:00,16.6870449,74.2505872,PM10,22,73,45
India,Maharashtra,Kolhapur,"Shivaji University, Kolhapur - MPCB",20-03-2026 16:00,16.6870449,74.2505872,CO,10,28,18
India,Maharashtra,Kolhapur,"Sinchan Bhavan, Kolhapur - MPCB",20-03-2026 16:00,16.7143745,74.2426398,SO2,NA,NA,NA
India,Maharashtra,Latur,"Sawe Wadi, Latur - MPCB",20-03-2026 16:00,18.39963,76.57452,CO,2,50,8
India,Maharashtra,Malegaon,"Mahesh Nagar, Malegaon - MPCB",20-03-2026 16:00,20.555712,74.529236,PM10,57,154,84
India,Maharashtra,Mira-Bhayandar,"Bhayandar West, Mira-Bhayandar - MPCB",20-03-2026 16:00,19.296481,72.840923,PM2.5,9,70,26
India,Maharashtra,Mira-Bhayandar,"Bhayandar West, Mira-Bhayandar - MPCB",20-03-2026 16:00,19.296481,72.840923,NH3,NA,NA,NA
India,Maharashtra,Mira-Bhayandar,"Bhayandar West, Mira-Bhayandar - MPCB",20-03-2026 16:00,19.296481,72.840923,SO2,7,13,10
India,Maharashtra,Mira-Bhayandar,"Bhayandar West, Mira-Bhayandar - MPCB",20-03-2026 16:00,19.296481,72.840923,OZONE,NA,NA,NA
India,Maharashtra,Mumbai,"Bandra Kurla Complex, Mumbai - IITM",20-03-2026 16:00,19.053536,72.84643,OZONE,1,24,4
India,Maharashtra,Mumbai,"Bandra Kurla Complex, Mumbai - MPCB",20-03-2026 16:00,19.065931,72.862131,PM2.5,28,78,52
India,Maharashtra,Mumbai,"Kurla, Mumbai - MPCB",20-03-2026 16:00,19.0863,72.8888,CO,6,12,10
India,Maharashtra,Mumbai,"Malad West, Mumbai - IITM",20-03-2026 16:00,19.19709,72.82204,PM10,45,107,76
India,Maharashtra,Mumbai,"Malad West, Mumbai - IITM",20-03-2026 16:00,19.19709,72.82204,NH3,13,25,19
India,Maharashtra,Mumbai,"Mazgaon, Mumbai - IITM",20-03-2026 16:00,18.96702,72.84214,SO2,8,12,10
India,Maharashtra,Mumbai,"Mindspace-Malad West, Mumbai - MPCB",20-03-2026 16:00,19.1878657,72.8304069,NH3,2,16,4
India,Maharashtra,Mumbai,"Borivali East, Mumbai - MPCB",20-03-2026 16:00,19.2243333,72.8658113,PM10,25,80,48
India,Maharashtra,Mumbai,"Chakala-Andheri East, Mumbai - IITM",20-03-2026 16:00,19.11074,72.86084,NO2,47,102,76
India,Maharashtra,Mumbai,"Chakala-Andheri East, Mumbai - IITM",20-03-2026 16:00,19.11074,72.86084,SO2,1,44,5
India,Maharashtra,Mumbai,"Chakala-Andheri East, Mumbai - IITM",20-03-2026 16:00,19.11074,72.86084,OZONE,6,73,28
India,Maharashtra,Mumbai,"Powai, Mumbai - MPCB",20-03-2026 16:00,19.1375,72.915056,NO2,7,8,7
India,Maharashtra,Mumbai,"Powai, Mumbai - MPCB",20-03-2026 16:00,19.1375,72.915056,OZONE,9,9,9
India,Maharashtra,Mumbai,"Shivaji Nagar, Mumbai - BMC",20-03-2026 16:00,19.060498,72.923356,PM10,69,114,91
India,Maharashtra,Mumbai,"Shivaji Nagar, Mumbai - BMC",20-03-2026 16:00,19.060498,72.923356,SO2,1,83,14
India,Maharashtra,Mumbai,"Kandivali West, Mumbai - BMC",20-03-2026 16:00,19.215859,72.831718,PM2.5,24,58,37
India,Maharashtra,Mumbai,"Kandivali West, Mumbai - BMC",20-03-2026 16:00,19.215859,72.831718,CO,8,37,21
India,Maharashtra,Mumbai,"Ghatkopar, Mumbai - BMC",20-03-2026 16:00,19.083694,72.920967,OZONE,5,68,40
India,Maharashtra,Mumbai,"Colaba, Mumbai - MPCB",20-03-2026 16:00,18.91,72.82,SO2,NA,NA,NA
India,Maharashtra,Solapur,"Dnyaneshwar Nagar, Solapur - MPCB",20-03-2026 16:00,17.6336264,75.9132495,NO2,8,32,14
India,Maharashtra,Solapur,"Ratandeep Housing Society, Solapur - MPCB",20-03-2026 16:00,17.65439,75.90649,SO2,1,7,3
India,Maharashtra,Thane,"Kasarvadavali, Thane - MPCB",20-03-2026 16:00,19.26777,72.97182,NO2,4,29,14
India,Maharashtra,Thane,"Upvan Fort, Thane - MPCB",20-03-2026 16:00,19.222279,72.957979,SO2,2,30,6
India,Maharashtra,Ulhasnagar,"Sidhi Vinayak Nagar, Ulhasnagar - MPCB",20-03-2026 16:00,19.235581,73.159121,PM2.5,47,92,65
India,Maharashtra,Ulhasnagar,"Sidhi Vinayak Nagar, Ulhasnagar - MPCB",20-03-2026 16:00,19.235581,73.159121,SO2,3,28,11
India,Maharashtra,Ulhasnagar,"Vithalwadi, Ulhasnagar - MPCB",20-03-2026 16:00,19.2307571,73.155192,NO2,17,31,23
India,Maharashtra,Navi Mumbai,"Sector-2E Kalamboli, Navi Mumbai - MPCB",20-03-2026 16:00,19.02579,73.10297,NH3,7,7,7
India,Maharashtra,Navi Mumbai,"Tondare-Taloja, Navi Mumbai - MPCB",20-03-2026 16:00,19.063,73.1209,NO2,6,15,10
India,Maharashtra,Navi Mumbai,"Tondare-Taloja, Navi Mumbai - MPCB",20-03-2026 16:00,19.063,73.1209,SO2,2,4,3
India,Maharashtra,Parbhani,"Masoom Colony, Parbhani - MPCB",20-03-2026 16:00,19.265594,76.761463,SO2,NA,NA,NA
India,Maharashtra,Pimpri-Chinchwad,"Gavalinagar, Pimpri Chinchwad - MPCB",20-03-2026 16:00,18.63673,73.82487,SO2,NA,NA,NA
India,Maharashtra,Pimpri-Chinchwad,"Park Street Wakad, Pimpri Chinchwad - MPCB",20-03-2026 16:00,18.59051,73.77946,PM2.5,40,80,54
India,Maharashtra,Pimpri-Chinchwad,"Park Street Wakad, Pimpri Chinchwad - MPCB",20-03-2026 16:00,18.59051,73.77946,NO2,18,39,28
India,Maharashtra,Nagpur,"Opp GPO Civil Lines, Nagpur - MPCB",20-03-2026 16:00,21.152875,79.0517531,CO,2,107,38
India,Maharashtra,Nagpur,"Opp GPO Civil Lines, Nagpur - MPCB",20-03-2026 16:00,21.152875,79.0517531,OZONE,3,28,19
India,Maharashtra,Nagpur,"Ram Nagar, Nagpur - MPCB",20-03-2026 16:00,21.143383,79.048912,NH3,4,4,4
India,Maharashtra,Nanded,"Sneh Nagar, Nanded - MPCB",20-03-2026 16:00,19.173852,77.296291,PM10,23,60,41
India,Maharashtra,Nanded,"Sneh Nagar, Nanded - MPCB",20-03-2026 16:00,19.173852,77.296291,SO2,7,8,8
India,Maharashtra,Nashik,"Gangapur Road, Nashik - MPCB",20-03-2026 16:00,20.0073285,73.7762427,PM10,88,153,116
India,Maharashtra,Nashik,"Gangapur Road, Nashik - MPCB",20-03-2026 16:00,20.0073285,73.7762427,CO,26,27,26
India,Maharashtra,Ulhasnagar,"Vithalwadi, Ulhasnagar - MPCB",20-03-2026 16:00,19.2307571,73.155192,CO,6,14,9
India,Maharashtra,Virar,"Bolinj, Virar - MPCB",20-03-2026 16:00,19.445821,72.7988231,NH3,3,3,3
India,Maharashtra,Virar,"Bolinj, Virar - MPCB",20-03-2026 16:00,19.445821,72.7988231,SO2,4,20,7
India,Meghalaya,Shillong,"Lumpyngngad, Shillong - Meghalaya PCB",20-03-2026 16:00,25.5586,91.8985,PM2.5,4,35,13
India,Nagaland,Kohima,"PWD Junction, Kohima - NPCB",20-03-2026 16:00,25.6635413,94.0989878,PM10,27,56,36
India,Nagaland,Kohima,"PWD Junction, Kohima - NPCB",20-03-2026 16:00,25.6635413,94.0989878,SO2,16,27,21
India,Maharashtra,Pune,"Katraj Dairy, Pune - MPCB",20-03-2026 16:00,18.45445,73.854155,PM2.5,NA,NA,NA
India,Maharashtra,Pune,"Katraj Dairy, Pune - MPCB",20-03-2026 16:00,18.45445,73.854155,PM10,NA,NA,NA
India,Maharashtra,Pune,"Mhada Colony, Pune - IITM",20-03-2026 16:00,18.57304,73.927715,NO2,27,85,61
India,Maharashtra,Pune,"Panchawati_Pashan, Pune - IITM",20-03-2026 16:00,18.536457,73.805454,OZONE,3,49,27
India,Maharashtra,Pune,"Savitribai Phule Pune University, Pune - MPCB",20-03-2026 16:00,18.547056,73.826908,PM2.5,20,35,27
India,Maharashtra,Pune,"Savitribai Phule Pune University, Pune - MPCB",20-03-2026 16:00,18.547056,73.826908,PM10,43,75,58
India,Maharashtra,Pimpri-Chinchwad,"Park Street Wakad, Pimpri Chinchwad - MPCB",20-03-2026 16:00,18.59051,73.77946,SO2,3,11,5
India,Maharashtra,Pimpri-Chinchwad,"Thergaon, Pimpri Chinchwad - MPCB",20-03-2026 16:00,18.616318,73.765797,NO2,16,43,28
India,Maharashtra,Pimpri-Chinchwad,"Thergaon, Pimpri Chinchwad - MPCB",20-03-2026 16:00,18.616318,73.765797,NH3,5,8,6
India,Maharashtra,Pune,"Hadapsar, Pune - IITM",20-03-2026 16:00,18.501793,73.927532,PM10,39,111,72
India,Maharashtra,Nashik,"Hirawadi, Nashik - MPCB",20-03-2026 16:00,20.021503,73.813844,NO2,1,13,5
India,Maharashtra,Nashik,"Hirawadi, Nashik - MPCB",20-03-2026 16:00,20.021503,73.813844,CO,36,54,45
India,Maharashtra,Sangli,"Vijay Nagar, Sangli - MPCB",20-03-2026 16:00,16.5038,74.3623,CO,6,31,20
India,Maharashtra,Sangli,"Vijay Nagar, Sangli - MPCB",20-03-2026 16:00,16.5038,74.3623,OZONE,3,66,52
India,Maharashtra,Navi Mumbai,"Nerul, Navi Mumbai - MPCB",20-03-2026 16:00,19.008751,73.01662,NH3,6,6,6
India,Odisha,Talcher,"Talcher Coalfields,Talcher - OSPCB",20-03-2026 16:00,20.9360711,85.1707021,PM10,39,167,103
India,Odisha,Talcher,"Talcher Coalfields,Talcher - OSPCB",20-03-2026 16:00,20.9360711,85.1707021,CO,9,31,17
India,Odisha,Tensa,"Barsua Iron Ore Mines, Tensa - OSPCB",20-03-2026 16:00,21.869985,85.167016,PM10,37,59,48
India,Punjab,Bathinda,"Hardev Nagar, Bathinda - PPCB",20-03-2026 16:00,30.233011,74.907758,NO2,34,44,37
India,Punjab,Jalandhar,"Civil Line, Jalandhar - PPCB",20-03-2026 16:00,31.321907,75.578914,PM10,40,63,50
India,Punjab,Jalandhar,"Civil Line, Jalandhar - PPCB",20-03-2026 16:00,31.321907,75.578914,NO2,30,36,32
India,Odisha,Balasore,"Kalidaspur, Balasore - OSPCB",20-03-2026 16:00,21.51161,86.89088,SO2,7,128,24
India,Odisha,Balasore,"Kalidaspur, Balasore - OSPCB",20-03-2026 16:00,21.51161,86.89088,OZONE,64,141,115
India,Odisha,Barbil,"Forest Office, Barbil - OSPCB",20-03-2026 16:00,22.1166054,85.3945546,NO2,14,77,31
India,Odisha,Baripada,"Meher Colony, Baripada - OSPCB",20-03-2026 16:00,21.941841,86.728318,PM10,45,100,70
India,Odisha,Baripada,"Meher Colony, Baripada - OSPCB",20-03-2026 16:00,21.941841,86.728318,NO2,3,67,30
India,Odisha,Baripada,"Meher Colony, Baripada - OSPCB",20-03-2026 16:00,21.941841,86.728318,NH3,1,9,4
India,Odisha,Baripada,"Meher Colony, Baripada - OSPCB",20-03-2026 16:00,21.941841,86.728318,SO2,6,14,10
India,Odisha,Rairangpur,"Divisional Forest Office, Rairangpur - OSPCB",20-03-2026 16:00,22.265816,86.174829,CO,6,26,16
India,Odisha,Rourkela,"Raghunathpali, Rourkela - OSPCB",20-03-2026 16:00,22.220833,84.809444,NH3,1,2,1
India,Odisha,Rourkela,"Raghunathpali, Rourkela - OSPCB",20-03-2026 16:00,22.220833,84.809444,CO,26,101,60
India,Odisha,Rourkela,"Sector-2, Rourkela - OSPCB",20-03-2026 16:00,22.245,84.88111111,CO,29,48,38
India,Odisha,Suakati,"OMC Colony, Suakati - OSPCB",20-03-2026 16:00,21.606865,85.510538,PM10,NA,NA,NA
India,Odisha,Suakati,"OMC Colony, Suakati - OSPCB",20-03-2026 16:00,21.606865,85.510538,CO,16,37,26
India,Odisha,Bhubaneswar,"Patia, Bhubaneswar - OSPCB",20-03-2026 16:00,20.34652,85.8163,SO2,5,14,8
India,Odisha,Bileipada,"Tata Township, Bileipada - OSPCB",20-03-2026 16:00,22.06156703,85.47409613,PM2.5,12,318,133
India,Odisha,Brajrajnagar,"GM Office, Brajrajnagar - OSPCB",20-03-2026 16:00,21.8004996,83.8396977,PM10,3,125,46
India,Odisha,Brajrajnagar,"GM Office, Brajrajnagar - OSPCB",20-03-2026 16:00,21.8004996,83.8396977,NH3,4,5,5
India,Odisha,Bhubaneswar,"Lingraj Mandir, Bhubaneswar - OSPCB",20-03-2026 16:00,20.24079,85.836784,PM10,20,79,45
India,Odisha,Bhubaneswar,"Lingraj Mandir, Bhubaneswar - OSPCB",20-03-2026 16:00,20.24079,85.836784,OZONE,16,61,43
India,Odisha,Bhubaneswar,"Patia, Bhubaneswar - OSPCB",20-03-2026 16:00,20.34652,85.8163,PM2.5,13,70,37
India,Odisha,Bhubaneswar,"Patia, Bhubaneswar - OSPCB",20-03-2026 16:00,20.34652,85.8163,PM10,37,100,60
India,Odisha,Cuttack,"CDA Area, Cuttack - OSPCB",20-03-2026 16:00,20.48891,85.84768,PM2.5,12,72,38
India,Odisha,Cuttack,"CDA Area, Cuttack - OSPCB",20-03-2026 16:00,20.48891,85.84768,OZONE,5,172,90
India,Odisha,Keonjhar,"Jagamohanpur, Keonjhar - OSPCB",20-03-2026 16:00,21.6439,85.599355,PM10,NA,NA,NA
India,Punjab,Jalandhar,"Civil Line, Jalandhar - PPCB",20-03-2026 16:00,31.321907,75.578914,SO2,18,21,19
India,Punjab,Jalandhar,"Civil Line, Jalandhar - PPCB",20-03-2026 16:00,31.321907,75.578914,OZONE,17,54,37
India,Odisha,Rairangpur,"Divisional Forest Office, Rairangpur - OSPCB",20-03-2026 16:00,22.265816,86.174829,NH3,1,1,1
India,Odisha,Nayagarh,"Dabuna, Nayagarh - OSPCB",20-03-2026 16:00,21.847279,85.416905,PM2.5,52,85,71
India,Rajasthan,Bhiwadi,"RIICO Ind. Area III, Bhiwadi - RSPCB",20-03-2026 16:00,28.194909,76.862296,OZONE,5,27,19
India,Rajasthan,Bhiwadi,"Vasundhara Nagar_UIT, Bhiwadi - RSPCB",20-03-2026 16:00,28.207266,76.829265,NO2,9,41,24
India,Rajasthan,Bhiwadi,"Vasundhara Nagar_UIT, Bhiwadi - RSPCB",20-03-2026 16:00,28.207266,76.829265,NH3,5,7,5
India,Rajasthan,Bhiwadi,"Vasundhara Nagar_UIT, Bhiwadi - RSPCB",20-03-2026 16:00,28.207266,76.829265,CO,12,38,24
India,Rajasthan,Bikaner,"MM Ground, Bikaner - RSPCB",20-03-2026 16:00,28.018792,73.292658,PM2.5,NA,NA,NA
India,Rajasthan,Bikaner,"MM Ground, Bikaner - RSPCB",20-03-2026 16:00,28.018792,73.292658,NO2,NA,NA,NA
India,Rajasthan,Bikaner,"MM Ground, Bikaner - RSPCB",20-03-2026 16:00,28.018792,73.292658,NH3,NA,NA,NA
India,Rajasthan,Bikaner,"MM Ground, Bikaner - RSPCB",20-03-2026 16:00,28.018792,73.292658,OZONE,18,110,86
India,Rajasthan,Bundi,"New Colony, Bundi - RSPCB",20-03-2026 16:00,25.435774,75.644272,CO,12,44,16
India,Rajasthan,Jaisalmer,"Sadar Bazar, Jaisalmer - RSPCB",20-03-2026 16:00,26.912329,70.909168,NO2,13,29,19
India,Rajasthan,Jalore,"Mudtra Sili, Jalore - RSPCB",20-03-2026 16:00,25.344694,72.626208,PM2.5,18,37,27
India,Rajasthan,Jhalawar,"Rajlaxmi Nagar, Jhalawar - RSPCB",20-03-2026 16:00,24.588397,76.172782,SO2,6,21,10
India,Rajasthan,Jhunjhunu,"Indra Nagar, Jhunjhunu - RSPCB",20-03-2026 16:00,28.108988,75.386577,SO2,3,6,4
India,Rajasthan,Jhunjhunu,"Indra Nagar, Jhunjhunu - RSPCB",20-03-2026 16:00,28.108988,75.386577,OZONE,11,88,67
India,Rajasthan,Jodhpur,"Collectorate, Jodhpur - RSPCB",20-03-2026 16:00,26.268249,73.0193853,PM2.5,30,72,47
India,Rajasthan,Jodhpur,"Collectorate, Jodhpur - RSPCB",20-03-2026 16:00,26.268249,73.0193853,SO2,1,12,4
India,Rajasthan,Barmer,"Railway Colony, Barmer - RSPCB",20-03-2026 16:00,25.747299,71.393989,NO2,7,28,14
India,Rajasthan,Barmer,"Railway Colony, Barmer - RSPCB",20-03-2026 16:00,25.747299,71.393989,SO2,1,13,4
India,Rajasthan,Bharatpur,"Krishna Nagar, Bharatpur - RSPCB",20-03-2026 16:00,27.215415,77.50873,OZONE,27,94,64
India,Rajasthan,Bhilwara,"Pratap Nagar, Bhilwara - RSPCB",20-03-2026 16:00,25.339605,74.618883,NH3,9,16,11
India,Rajasthan,Bhilwara,"Pratap Nagar, Bhilwara - RSPCB",20-03-2026 16:00,25.339605,74.618883,SO2,2,11,8
India,Rajasthan,Bhiwadi,"RIICO Ind. Area III, Bhiwadi - RSPCB",20-03-2026 16:00,28.194909,76.862296,NH3,5,17,10
India,Rajasthan,Bhiwadi,"RIICO Ind. Area III, Bhiwadi - RSPCB",20-03-2026 16:00,28.194909,76.862296,SO2,11,18,14
India,Rajasthan,Hanumangarh,"Housing Board, Hanumangarh - RSPCB",20-03-2026 16:00,29.61075,74.283608,OZONE,1,62,39
India,Rajasthan,Jaipur,"Adarsh Nagar, Jaipur - RSPCB",20-03-2026 16:00,26.902909,75.836858,NH3,4,9,6
India,Rajasthan,Jaipur,"Mansarovar Sector-12, Jaipur - RSPCB",20-03-2026 16:00,26.843698,75.766894,NH3,11,28,14
India,Rajasthan,Jaipur,"Police Commissionerate, Jaipur - RSPCB",20-03-2026 16:00,26.9164092,75.7994901,PM2.5,18,122,52
India,Rajasthan,Jaipur,"Police Commissionerate, Jaipur - RSPCB",20-03-2026 16:00,26.9164092,75.7994901,OZONE,18,47,35
India,Rajasthan,Chittorgarh,"Shastri Nagar, Chittorgarh - RSPCB",20-03-2026 16:00,24.892047,74.623527,NH3,5,13,9
India,Rajasthan,Dausa,"Khatikan Mohalla, Dausa - RSPCB",20-03-2026 16:00,26.895552,76.334753,PM10,33,139,83
India,Rajasthan,Dausa,"Khatikan Mohalla, Dausa - RSPCB",20-03-2026 16:00,26.895552,76.334753,CO,14,32,23
India,Rajasthan,Dholpur,"Raja Ganj, Dholpur - RSPCB",20-03-2026 16:00,26.699557,77.898881,NO2,15,35,25
India,Punjab,Rupnagar,"Ratanpura, Rupnagar - Ambuja Cements",20-03-2026 16:00,31.0325454,76.5623046,CO,40,54,48
India,Rajasthan,Ajmer,"Civil Lines,  Ajmer - RSPCB",20-03-2026 16:00,26.470859,74.646594,PM10,NA,NA,NA
India,Rajasthan,Ajmer,"Civil Lines,  Ajmer - RSPCB",20-03-2026 16:00,26.470859,74.646594,NH3,NA,NA,NA
India,Rajasthan,Jaipur,"Sector-2 Murlipura, Jaipur - RSPCB",20-03-2026 16:00,26.960669,75.771817,SO2,1,5,3
India,Rajasthan,Jaipur,"Shastri Nagar, Jaipur - RSPCB",20-03-2026 16:00,26.9502929,75.730943,NH3,6,9,8
India,Rajasthan,Banswara,"Rati Talai, Banswara - RSPCB",20-03-2026 16:00,23.55519,74.44001,PM10,26,149,80
India,Rajasthan,Banswara,"Rati Talai, Banswara - RSPCB",20-03-2026 16:00,23.55519,74.44001,SO2,3,10,5
India,Rajasthan,Jaipur,"RIICO Sitapura, Jaipur - RSPCB",20-03-2026 16:00,26.786682,75.827928,NH3,4,10,6
India,Rajasthan,Jaipur,"RIICO Sitapura, Jaipur - RSPCB",20-03-2026 16:00,26.786682,75.827928,SO2,2,8,5
India,Rajasthan,Tonk,"Shastri Nagar, Tonk - RSPCB",20-03-2026 16:00,26.159933,75.780517,PM10,20,156,71
India,Rajasthan,Udaipur,"Ashok Nagar, Udaipur - RSPCB",20-03-2026 16:00,24.5886166,73.6321397,NO2,NA,NA,NA
India,Sikkim,Gangtok,"Zero Point GICI, Gangtok - SSPCB",20-03-2026 16:00,27.33853,88.614099,PM10,22,71,48
India,Sikkim,Gangtok,"Zero Point GICI, Gangtok - SSPCB",20-03-2026 16:00,27.33853,88.614099,NH3,1,40,3
India,TamilNadu,Chennai,"Perungudi, Chennai - TNPCB",20-03-2026 16:00,12.9533,80.2357,NO2,4,13,6
India,TamilNadu,Chennai,"Perungudi, Chennai - TNPCB",20-03-2026 16:00,12.9533,80.2357,NH3,1,3,1
India,TamilNadu,Chennai,"Perungudi, Chennai - TNPCB",20-03-2026 16:00,12.9533,80.2357,CO,27,60,41
India,TamilNadu,Chennai,"Royapuram, Chennai - TNPCB",20-03-2026 16:00,13.1036,80.2909,NO2,11,16,13
India,TamilNadu,Chennai,"Velachery Res. Area, Chennai - CPCB",20-03-2026 16:00,13.0052189,80.2398125,NO2,12,15,13
India,Rajasthan,Karauli,"Satyawati Vihar, Karauli - RSPCB",20-03-2026 16:00,26.506177,77.025989,NO2,8,21,12
India,Rajasthan,Kota,"Dhanmandi, Kota - RSPCB",20-03-2026 16:00,25.16409,75.858137,PM2.5,5,72,29
India,Rajasthan,Kota,"Nayapura, Kota - RSPCB",20-03-2026 16:00,25.196024,75.855668,PM2.5,2,62,24
India,Rajasthan,Kota,"Nayapura, Kota - RSPCB",20-03-2026 16:00,25.196024,75.855668,NO2,11,69,23
India,Rajasthan,Kota,"Nayapura, Kota - RSPCB",20-03-2026 16:00,25.196024,75.855668,SO2,12,18,16
India,Rajasthan,Jodhpur,"Digari Kalan, Jodhpur - RSPCB",20-03-2026 16:00,26.29581,73.082283,NH3,NA,NA,NA
India,Rajasthan,Jodhpur,"Jhalamand, Jodhpur - RSPCB",20-03-2026 16:00,26.215415,73.070156,PM2.5,5,23,13
India,Rajasthan,Jodhpur,"Jhalamand, Jodhpur - RSPCB",20-03-2026 16:00,26.215415,73.070156,NH3,10,19,13
India,Rajasthan,Jodhpur,"Jhalamand, Jodhpur - RSPCB",20-03-2026 16:00,26.215415,73.070156,CO,10,18,15
India,Rajasthan,Nagaur,"Karni Colony, Nagaur - RSPCB",20-03-2026 16:00,27.213494,73.734444,NH3,NA,NA,NA
India,Rajasthan,Pali,"Indira Colony Vistar, Pali - RSPCB",20-03-2026 16:00,25.771061,73.340227,CO,3,31,12
India,Rajasthan,Pali,"Indira Colony Vistar, Pali - RSPCB",20-03-2026 16:00,25.771061,73.340227,OZONE,8,73,47
India,Rajasthan,Pratapgarh,"Pragati Nagar, Pratapgarh - RSPCB",20-03-2026 16:00,24.041198,74.780702,CO,8,27,16
India,Rajasthan,Rajsamand,"Dhoinda, Rajsamand - RSPCB",20-03-2026 16:00,25.03636,73.883502,PM2.5,5,42,13
India,Rajasthan,Sawai Madhopur,"Sahu Nagar, Sawai Madhopur - RSPCB",20-03-2026 16:00,26.031443,76.359327,NH3,7,11,8
India,Rajasthan,Sawai Madhopur,"Sahu Nagar, Sawai Madhopur - RSPCB",20-03-2026 16:00,26.031443,76.359327,OZONE,43,193,88
India,TamilNadu,Chennai,"Arumbakkam, Chennai - TNPCB",20-03-2026 16:00,13.0664,80.2112,NO2,14,21,17
India,TamilNadu,Chennai,"Kodungaiyur, Chennai - TNPCB",20-03-2026 16:00,13.1278,80.2642,NO2,10,15,13
India,Rajasthan,Rajsamand,"Dhoinda, Rajsamand - RSPCB",20-03-2026 16:00,25.03636,73.883502,NH3,7,17,11
India,Telangana,Hyderabad,"ECIL Kapra, Hyderabad - TSPCB",20-03-2026 16:00,17.470431,78.566959,NO2,14,38,24
India,Telangana,Hyderabad,"ECIL Kapra, Hyderabad - TSPCB",20-03-2026 16:00,17.470431,78.566959,CO,14,29,23
India,Telangana,Hyderabad,"ICRISAT Patancheru, Hyderabad - TSPCB",20-03-2026 16:00,17.5184,78.278777,NO2,5,18,12
India,Telangana,Hyderabad,"ICRISAT Patancheru, Hyderabad - TSPCB",20-03-2026 16:00,17.5184,78.278777,SO2,8,21,12
India,Telangana,Hyderabad,"ICRISAT Patancheru, Hyderabad - TSPCB",20-03-2026 16:00,17.5184,78.278777,OZONE,19,76,61
India,Telangana,Hyderabad,"IDA Pashamylaram, Hyderabad - TSPCB",20-03-2026 16:00,17.5316895,78.218939,PM2.5,16,93,50
India,Telangana,Hyderabad,"IDA Pashamylaram, Hyderabad - TSPCB",20-03-2026 16:00,17.5316895,78.218939,SO2,2,21,9
India,Telangana,Hyderabad,"IITH Kandi, Hyderabad - TSPCB",20-03-2026 16:00,17.585705,78.126199,PM10,78,88,82
India,Telangana,Hyderabad,"IITH Kandi, Hyderabad - TSPCB",20-03-2026 16:00,17.585705,78.126199,NO2,10,17,15
India,Uttar_Pradesh,Bareilly,"Rajendra Nagar, Bareilly - UPPCB",20-03-2026 16:00,28.38910936,79.42963708,NH3,1,1,1
India,Uttar_Pradesh,Bulandshahr,"Yamunapuram, Bulandshahr - UPPCB",20-03-2026 16:00,28.406963,77.849831,SO2,4,21,12
India,Uttar_Pradesh,Firozabad,"Nagla Bhau, Firozabad - UPPCB",20-03-2026 16:00,27.168897,78.37696,PM10,24,94,55
India,Uttar_Pradesh,Firozabad,"Vibhab Nagar, Firozabad - UPPCB",20-03-2026 16:00,27.1594,78.3953,PM2.5,19,82,43
India,Uttar_Pradesh,Firozabad,"Vibhab Nagar, Firozabad - UPPCB",20-03-2026 16:00,27.1594,78.3953,NH3,2,2,2
India,Uttar_Pradesh,Ghaziabad,"Indirapuram, Ghaziabad - UPPCB",20-03-2026 16:00,28.646233,77.358075,NH3,16,18,16
India,TamilNadu,Perundurai,"SIPCOT Industrial Park, Perundurai - TNPCB",20-03-2026 16:00,11.258242,77.552761,NO2,12,12,12
India,TamilNadu,Thoothukudi,"Meelavittan, Thoothukudi - TNPCB",20-03-2026 16:00,8.816428,78.099039,CO,20,53,39
India,Telangana,Hyderabad,"Central University, Hyderabad - TSPCB",20-03-2026 16:00,17.460103,78.334361,NH3,1,6,3
India,Telangana,Hyderabad,"ECIL Kapra, Hyderabad - TSPCB",20-03-2026 16:00,17.470431,78.566959,PM2.5,47,67,55
India,Telangana,Hyderabad,"ECIL Kapra, Hyderabad - TSPCB",20-03-2026 16:00,17.470431,78.566959,PM10,64,84,70
India,Uttar_Pradesh,Agra,"Manoharpur, Agra - UPPCB",20-03-2026 16:00,27.23711,78.01936,NH3,5,5,5
India,Uttar_Pradesh,Agra,"Manoharpur, Agra - UPPCB",20-03-2026 16:00,27.23711,78.01936,OZONE,6,6,6
India,Uttar_Pradesh,Agra,"Rohta, Agra - UPPCB",20-03-2026 16:00,27.106972,78.000111,PM2.5,34,215,65
India,Uttar_Pradesh,Agra,"Rohta, Agra - UPPCB",20-03-2026 16:00,27.106972,78.000111,NH3,6,6,6
India,Uttar_Pradesh,Agra,"Rohta, Agra - UPPCB",20-03-2026 16:00,27.106972,78.000111,CO,10,22,13
India,Uttar_Pradesh,Agra,"Sanjay Palace, Agra - UPPCB",20-03-2026 16:00,27.19865833,78.00598056,OZONE,14,108,34
India,Telangana,Hyderabad,"IITH Kandi, Hyderabad - TSPCB",20-03-2026 16:00,17.585705,78.126199,NH3,5,7,6
India,Telangana,Hyderabad,"Kompally Municipal Office, Hyderabad - TSPCB",20-03-2026 16:00,17.544899,78.486949,PM2.5,46,55,49
India,Telangana,Hyderabad,"Kompally Municipal Office, Hyderabad - TSPCB",20-03-2026 16:00,17.544899,78.486949,NO2,10,16,15
India,Telangana,Hyderabad,"Nacharam_TSIIC IALA, Hyderabad - TSPCB",20-03-2026 16:00,17.429398,78.569354,SO2,12,16,15
India,Uttar_Pradesh,Agra,"Sector-3B Avas Vikas Colony, Agra - UPPCB",20-03-2026 16:00,27.19412,77.96237,SO2,13,15,14
India,Uttar_Pradesh,Agra,"Shahjahan Garden, Agra - UPPCB",20-03-2026 16:00,27.169338,78.03582,NO2,17,26,21
India,Uttar_Pradesh,Agra,"Shastripuram, Agra - UPPCB",20-03-2026 16:00,27.19862,77.92066,PM10,17,194,58
India,Uttar_Pradesh,Agra,"Shastripuram, Agra - UPPCB",20-03-2026 16:00,27.19862,77.92066,NO2,39,42,41
India,Uttar_Pradesh,Bareilly,"Civil Lines, Bareilly - UPPCB",20-03-2026 16:00,28.359581,79.414455,NO2,2,3,2
India,Tripura,Agartala,"Bardowali, Agartala - Tripura SPCB",20-03-2026 16:00,23.8175497,91.2726974,SO2,1,2,1
India,Telangana,Hyderabad,"New Malakpet, Hyderabad - TSPCB",20-03-2026 16:00,17.37206,78.50864,PM10,NA,NA,NA
India,Uttar_Pradesh,Ghaziabad,"Indirapuram, Ghaziabad - UPPCB",20-03-2026 16:00,28.646233,77.358075,OZONE,2,15,5
India,Uttar_Pradesh,Ghaziabad,"Loni, Ghaziabad - UPPCB",20-03-2026 16:00,28.757294,77.278792,PM2.5,28,274,102
India,Uttar_Pradesh,Ghaziabad,"Loni, Ghaziabad - UPPCB",20-03-2026 16:00,28.757294,77.278792,PM10,41,147,79
India,Uttar_Pradesh,Ghaziabad,"Loni, Ghaziabad - UPPCB",20-03-2026 16:00,28.757294,77.278792,NH3,1,4,2
India,Uttar_Pradesh,Ghaziabad,"Loni, Ghaziabad - UPPCB",20-03-2026 16:00,28.757294,77.278792,CO,12,74,45
India,Uttar_Pradesh,Ghaziabad,"Sanjay Nagar, Ghaziabad - UPPCB",20-03-2026 16:00,28.685382,77.453839,NO2,26,72,42
India,Uttar_Pradesh,Ghaziabad,"Sanjay Nagar, Ghaziabad - UPPCB",20-03-2026 16:00,28.685382,77.453839,CO,20,69,30
India,Uttar_Pradesh,Ghaziabad,"Vasundhara, Ghaziabad - UPPCB",20-03-2026 16:00,28.6603346,77.3572563,NO2,32,59,46
India,Uttar_Pradesh,Ghaziabad,"Vasundhara, Ghaziabad - UPPCB",20-03-2026 16:00,28.6603346,77.3572563,CO,38,65,51
India,Uttar_Pradesh,Lucknow,"B R Ambedkar University, Lucknow - UPPCB",20-03-2026 16:00,26.766433,80.927299,SO2,20,25,21
India,Uttar_Pradesh,Lucknow,"B R Ambedkar University, Lucknow - UPPCB",20-03-2026 16:00,26.766433,80.927299,OZONE,1,61,2
India,Uttar_Pradesh,Lucknow,"Gomti Nagar, Lucknow - UPPCB",20-03-2026 16:00,26.86812,81.005119,PM2.5,35,199,80
India,Uttar_Pradesh,Lucknow,"Gomti Nagar, Lucknow - UPPCB",20-03-2026 16:00,26.86812,81.005119,PM10,27,105,57
India,Uttar_Pradesh,Lucknow,"Gomti Nagar, Lucknow - UPPCB",20-03-2026 16:00,26.86812,81.005119,SO2,10,14,12
India,Uttar_Pradesh,Lucknow,"Kendriya Vidyalaya, Lucknow - CPCB",20-03-2026 16:00,26.906111,80.948222,NO2,36,40,39
India,Uttar_Pradesh,Lucknow,"Kendriya Vidyalaya, Lucknow - CPCB",20-03-2026 16:00,26.906111,80.948222,NH3,9,16,13
India,Uttar_Pradesh,Lucknow,"Lalbagh, Lucknow - CPCB",20-03-2026 16:00,26.8458805,80.9365541,PM2.5,69,196,143
India,Uttar_Pradesh,Muzaffarnagar,"New Mandi, Muzaffarnagar - UPPCB",20-03-2026 16:00,29.4723508,77.7194031,NO2,12,33,21
India,Uttar_Pradesh,Muzaffarnagar,"New Mandi, Muzaffarnagar - UPPCB",20-03-2026 16:00,29.4723508,77.7194031,CO,11,115,107
India,Uttar_Pradesh,Noida,"Sector - 125, Noida - UPPCB",20-03-2026 16:00,28.5447608,77.3231257,NO2,22,61,39
India,Uttar_Pradesh,Noida,"Sector - 125, Noida - UPPCB",20-03-2026 16:00,28.5447608,77.3231257,NH3,3,9,7
India,Uttar_Pradesh,Noida,"Sector - 62, Noida - IMD",20-03-2026 16:00,28.6245479,77.3577104,PM10,41,133,82
India,Uttar_Pradesh,Noida,"Sector - 62, Noida - IMD",20-03-2026 16:00,28.6245479,77.3577104,CO,14,25,18
India,Uttar_Pradesh,Noida,"Sector - 62, Noida - IMD",20-03-2026 16:00,28.6245479,77.3577104,OZONE,13,50,17
India,Uttar_Pradesh,Noida,"Sector-1, Noida - UPPCB",20-03-2026 16:00,28.5898,77.3101,PM10,NA,NA,NA
India,Uttar_Pradesh,Kanpur,"Nehru Nagar, Kanpur - UPPCB",20-03-2026 16:00,26.4703136,80.3229863,NO2,43,52,50
India,Uttar_Pradesh,Kanpur,"Nehru Nagar, Kanpur - UPPCB",20-03-2026 16:00,26.4703136,80.3229863,CO,60,67,64
India,Uttar_Pradesh,Kanpur,"Nehru Nagar, Kanpur - UPPCB",20-03-2026 16:00,26.4703136,80.3229863,OZONE,6,28,11
India,Uttar_Pradesh,Khurja,"Kalindi Kunj, Khurja - UPPCB",20-03-2026 16:00,28.2348927,77.8683002,NH3,1,1,1
India,Uttar_Pradesh,Khurja,"Kalindi Kunj, Khurja - UPPCB",20-03-2026 16:00,28.2348927,77.8683002,OZONE,3,13,7
India,Uttar_Pradesh,Lucknow,"B R Ambedkar University, Lucknow - UPPCB",20-03-2026 16:00,26.766433,80.927299,NH3,1,4,4
India,Uttar_Pradesh,Lucknow,"Lalbagh, Lucknow - CPCB",20-03-2026 16:00,26.8458805,80.9365541,OZONE,10,36,13
India,Uttar_Pradesh,Meerut,"Pallavpuram Phase 2, Meerut - UPPCB",20-03-2026 16:00,29.06351,77.709723,NO2,24,87,39
India,Uttar_Pradesh,Meerut,"Pallavpuram Phase 2, Meerut - UPPCB",20-03-2026 16:00,29.06351,77.709723,NH3,6,12,7
India,Uttar_Pradesh,Meerut,"Pallavpuram Phase 2, Meerut - UPPCB",20-03-2026 16:00,29.06351,77.709723,SO2,6,14,10
India,Uttar_Pradesh,Moradabad,"Buddhi Vihar, Moradabad - UPPCB",20-03-2026 16:00,28.83526,78.7446,PM10,17,64,36
India,Uttar_Pradesh,Moradabad,"Buddhi Vihar, Moradabad - UPPCB",20-03-2026 16:00,28.83526,78.7446,NO2,28,29,29
India,Uttar_Pradesh,Gorakhpur,"Madan Mohan Malaviya University of Technology, Gorakhpur - UPPCB",20-03-2026 16:00,26.730136,83.433859,PM10,54,222,108
India,Uttar_Pradesh,Greater Noida,"Knowledge Park - III, Greater Noida - UPPCB",20-03-2026 16:00,28.47272,77.482,NH3,10,19,16
India,Uttar_Pradesh,Greater Noida,"Knowledge Park - III, Greater Noida - UPPCB",20-03-2026 16:00,28.47272,77.482,OZONE,2,45,10
India,Uttar_Pradesh,Greater Noida,"Knowledge Park - V, Greater Noida - UPPCB",20-03-2026 16:00,28.557054,77.453663,NH3,13,20,15
India,Uttar_Pradesh,Greater Noida,"Knowledge Park - V, Greater Noida - UPPCB",20-03-2026 16:00,28.557054,77.453663,CO,24,59,29
India,Uttar_Pradesh,Moradabad,"Eco Herbal Park, Moradabad - UPPCB",20-03-2026 16:00,28.840739,78.697531,CO,22,55,25
India,Uttar_Pradesh,Moradabad,"Jigar Colony, Moradabad - UPPCB",20-03-2026 16:00,28.856664,78.772638,SO2,25,59,31
India,Uttar_Pradesh,Moradabad,"Kashiram Nagar, Moradabad - UPPCB",20-03-2026 16:00,28.849399,78.742362,OZONE,7,13,9
India,Uttar_Pradesh,Kanpur,"NSI Kalyanpur, Kanpur - UPPCB",20-03-2026 16:00,26.509954,80.249612,PM10,57,123,97
India,Uttar_Pradesh,Kanpur,"NSI Kalyanpur, Kanpur - UPPCB",20-03-2026 16:00,26.509954,80.249612,SO2,7,28,13
India,Uttar_Pradesh,Kanpur,"Nehru Nagar, Kanpur - UPPCB",20-03-2026 16:00,26.4703136,80.3229863,PM2.5,43,142,70
India,Uttar_Pradesh,Prayagraj,"Motilal Nehru NIT, Prayagraj - UPPCB",20-03-2026 16:00,25.494,81.863,NO2,12,12,12
India,Uttar_Pradesh,Prayagraj,"Nagar Nigam, Prayagraj - UPPCB",20-03-2026 16:00,25.44919916,81.82735986,SO2,49,78,59
India,Uttar_Pradesh,Prayagraj,"Nagar Nigam, Prayagraj - UPPCB",20-03-2026 16:00,25.44919916,81.82735986,CO,18,54,23
India,Uttar_Pradesh,Raebareli," Indira Nagar, Raebareli - NTPC Unchahar",20-03-2026 16:00,26.207781,81.245571,SO2,NA,NA,NA
India,Uttar_Pradesh,Varanasi,"Ardhali Bazar, Varanasi - UPPCB",20-03-2026 16:00,25.3505986,82.9083074,PM10,30,145,89
India,Uttar_Pradesh,Varanasi,"Ardhali Bazar, Varanasi - UPPCB",20-03-2026 16:00,25.3505986,82.9083074,CO,1,70,19
India,Uttar_Pradesh,Varanasi,"Bhelupur, Varanasi - UPPCB",20-03-2026 16:00,25.301778,82.996789,PM10,NA,NA,NA
India,Uttar_Pradesh,Varanasi,"Bhelupur, Varanasi - UPPCB",20-03-2026 16:00,25.301778,82.996789,OZONE,8,23,10
India,Uttar_Pradesh,Varanasi,"IESD Banaras Hindu University, Varanasi - UPPCB",20-03-2026 16:00,25.262326,82.995408,PM10,17,150,74
India,West_Bengal,Durgapur,"Womens College_City Center, Durgapur - WBPCB",20-03-2026 16:00,23.549395,87.300496,SO2,27,28,27
India,West_Bengal,Durgapur,"Womens College_City Center, Durgapur - WBPCB",20-03-2026 16:00,23.549395,87.300496,CO,25,65,36
India,West_Bengal,Haldia,"Priyambada Housing Estate, Haldia - WBPCB",20-03-2026 16:00,22.06047,88.109737,PM2.5,9,40,22
India,West_Bengal,Haldia,"Priyambada Housing Estate, Haldia - WBPCB",20-03-2026 16:00,22.06047,88.109737,NO2,8,40,16
India,West_Bengal,Haldia,"Priyambada Housing Estate, Haldia - WBPCB",20-03-2026 16:00,22.06047,88.109737,SO2,10,20,13
India,West_Bengal,Haldia,"Priyambada Housing Estate, Haldia - WBPCB",20-03-2026 16:00,22.06047,88.109737,OZONE,23,27,26
India,West_Bengal,Howrah,"Belur Math, Howrah - WBPCB",20-03-2026 16:00,22.629801,88.352017,PM2.5,32,63,46
India,West_Bengal,Howrah,"Botanical Garden, Howrah - WBPCB",20-03-2026 16:00,22.554954,88.292568,PM2.5,22,38,31
India,West_Bengal,Howrah,"Botanical Garden, Howrah - WBPCB",20-03-2026 16:00,22.554954,88.292568,PM10,27,53,38
India,Uttarakhand,Kashipur,"Govt. Girls Inter College, Kashipur - UKPCB",20-03-2026 16:00,29.2124114,78.9611753,NO2,NA,NA,NA
India,Uttarakhand,Rishikesh,"Shivaji Nagar, Rishikesh - UKPCB",20-03-2026 16:00,30.075911,78.2859547,NO2,14,19,15
India,West_Bengal,Asansol,"Asansol Court Area, Asansol - WBPCB",20-03-2026 16:00,23.685297,86.945968,SO2,10,65,28
India,West_Bengal,Asansol,"Asansol Court Area, Asansol - WBPCB",20-03-2026 16:00,23.685297,86.945968,CO,27,104,48
India,West_Bengal,Asansol,"Asansol Court Area, Asansol - WBPCB",20-03-2026 16:00,23.685297,86.945968,OZONE,18,49,40
India,West_Bengal,Asansol,"Evelyn Lodge, Asansol - WBPCB",20-03-2026 16:00,23.697936,86.944395,PM2.5,28,88,60
India,West_Bengal,Asansol,"Evelyn Lodge, Asansol - WBPCB",20-03-2026 16:00,23.697936,86.944395,PM10,34,109,78
India,West_Bengal,Asansol,"Evelyn Lodge, Asansol - WBPCB",20-03-2026 16:00,23.697936,86.944395,CO,13,60,33
India,West_Bengal,Howrah,"Dasnagar, Howrah - WBPCB",20-03-2026 16:00,22.6025571,88.3105664,CO,20,32,28
India,West_Bengal,Howrah,"Ghusuri, Howrah - WBPCB",20-03-2026 16:00,22.611968,88.347422,PM10,37,130,70
India,West_Bengal,Howrah,"Padmapukur, Howrah - WBPCB",20-03-2026 16:00,22.5687319,88.2797276,PM2.5,18,45,30
India,West_Bengal,Howrah,"Padmapukur, Howrah - WBPCB",20-03-2026 16:00,22.5687319,88.2797276,SO2,9,75,27
India,West_Bengal,Howrah,"Padmapukur, Howrah - WBPCB",20-03-2026 16:00,22.5687319,88.2797276,CO,58,94,74
India,West_Bengal,Kolkata,"Ballygunge, Kolkata - WBPCB",20-03-2026 16:00,22.5367507,88.3638022,NH3,7,10,9
India,West_Bengal,Kolkata,"Bidhannagar, Kolkata - WBPCB",20-03-2026 16:00,22.58157048,88.41002457,NO2,10,13,12
India,West_Bengal,Asansol,"Trivenidevi Bhalotia College, Asansol - WBPCB",20-03-2026 16:00,23.616515,87.119133,SO2,11,22,15
India,West_Bengal,Barrackpore,"SVSPA Campus, Barrackpore - WBPCB",20-03-2026 16:00,22.7605581,88.3617589,PM10,33,85,53
India,West_Bengal,Barrackpore,"SVSPA Campus, Barrackpore - WBPCB",20-03-2026 16:00,22.7605581,88.3617589,NH3,4,6,5
India,West_Bengal,Barrackpore,"SVSPA Campus, Barrackpore - WBPCB",20-03-2026 16:00,22.7605581,88.3617589,SO2,12,19,13
India,West_Bengal,Barrackpore,"SVSPA Campus, Barrackpore - WBPCB",20-03-2026 16:00,22.7605581,88.3617589,CO,24,32,31
India,West_Bengal,Durgapur,"Mahishkapur Road_B-Zone, Durgapur - WBPCB",20-03-2026 16:00,23.567923,87.306843,PM2.5,51,111,73
India,West_Bengal,Kolkata,"Jadavpur, Kolkata - WBPCB",20-03-2026 16:00,22.49929,88.36917,NO2,10,19,15
India,West_Bengal,Kolkata,"Jadavpur, Kolkata - WBPCB",20-03-2026 16:00,22.49929,88.36917,SO2,4,7,5
India,West_Bengal,Kolkata,"Rabindra Bharati University, Kolkata - WBPCB",20-03-2026 16:00,22.627847,88.380669,PM10,34,74,53
India,West_Bengal,Kolkata,"Rabindra Bharati University, Kolkata - WBPCB",20-03-2026 16:00,22.627847,88.380669,NO2,27,64,44
India,West_Bengal,Kolkata,"Rabindra Sarobar, Kolkata - WBPCB",20-03-2026 16:00,22.51106,88.35142,PM10,31,58,43
India,West_Bengal,Kolkata,"Victoria, Kolkata - WBPCB",20-03-2026 16:00,22.5448082,88.3403691,PM2.5,30,84,46
India,Uttar_Pradesh,Varanasi,"Maldahiya, Varanasi - UPPCB",20-03-2026 16:00,25.32393,82.99687,PM10,29,98,58
India,Uttar_Pradesh,Varanasi,"Maldahiya, Varanasi - UPPCB",20-03-2026 16:00,25.32393,82.99687,NO2,2,4,3
India,Uttar_Pradesh,Varanasi,"Maldahiya, Varanasi - UPPCB",20-03-2026 16:00,25.32393,82.99687,CO,14,58,17
India,Uttar_Pradesh,Varanasi,"Maldahiya, Varanasi - UPPCB",20-03-2026 16:00,25.32393,82.99687,OZONE,3,30,14
India,Uttar_Pradesh,Vrindavan,"Omex Eternity, Vrindavan - UPPCB",20-03-2026 16:00,27.571409,77.655757,PM2.5,5,52,25
India,Uttar_Pradesh,Vrindavan,"Omex Eternity, Vrindavan - UPPCB",20-03-2026 16:00,27.571409,77.655757,SO2,17,19,18
India,Uttar_Pradesh,Vrindavan,"Omex Eternity, Vrindavan - UPPCB",20-03-2026 16:00,27.571409,77.655757,OZONE,15,16,15
India,Uttar_Pradesh,Noida,"Sector-1, Noida - UPPCB",20-03-2026 16:00,28.5898,77.3101,SO2,NA,NA,NA
India,Uttar_Pradesh,Noida,"Sector-116, Noida - UPPCB",20-03-2026 16:00,28.56923,77.393848,NH3,9,17,12
India,West_Bengal,Siliguri,"Ward-32 Bapupara, Siliguri - WBPCB",20-03-2026 16:00,26.6879226,88.4152495,PM2.5,NA,NA,NA
India,West_Bengal,Siliguri,"Ward-32 Bapupara, Siliguri - WBPCB",20-03-2026 16:00,26.6879226,88.4152495,PM10,NA,NA,NA
India,Andhra_Pradesh,Nellore,"Ambedkar Nagar, Nellore - APPCB ",20-03-2026 16:00,14.438164,79.966814,NO2,14,19,16
India,Andhra_Pradesh,Nellore,"Ambedkar Nagar, Nellore - APPCB ",20-03-2026 16:00,14.438164,79.966814,NH3,2,3,3
India,Andhra_Pradesh,Nellore,"Ambedkar Nagar, Nellore - APPCB ",20-03-2026 16:00,14.438164,79.966814,SO2,10,18,12
India,Andhra_Pradesh,Nellore,"Ambedkar Nagar, Nellore - APPCB ",20-03-2026 16:00,14.438164,79.966814,OZONE,9,41,29
India,Andhra_Pradesh,Rajamahendravaram,"Anand Kala Kshetram, Rajamahendravaram - APPCB",20-03-2026 16:00,16.9872867,81.7363176,OZONE,10,37,22
India,Andhra_Pradesh,Tirumala,"Toll Gate, Tirumala - APPCB",20-03-2026 16:00,13.67,79.35,PM10,12,51,29
India,Andhra_Pradesh,Tirumala,"Toll Gate, Tirumala - APPCB",20-03-2026 16:00,13.67,79.35,NH3,3,5,4
India,Andhra_Pradesh,Tirumala,"Toll Gate, Tirumala - APPCB",20-03-2026 16:00,13.67,79.35,SO2,2,13,7
India,Andhra_Pradesh,Tirumala,"Toll Gate, Tirumala - APPCB",20-03-2026 16:00,13.67,79.35,OZONE,3,328,52
India,Andhra_Pradesh,Tirupati,"Vaikuntapuram, Tirupati - APPCB",20-03-2026 16:00,13.615387,79.40923,PM10,NA,NA,NA
India,Andhra_Pradesh,Vijayawada,"Rajiv Nagar, Vijayawada - APPCB",20-03-2026 16:00,16.554731,80.64911,PM10,53,64,56
India,Andhra_Pradesh,Visakhapatnam,"GVM Corporation, Visakhapatnam - APPCB",20-03-2026 16:00,17.72,83.3,NO2,20,116,66
India,Arunachal_Pradesh,Naharlagun,"Naharlagun, Naharlagun - APSPCB",20-03-2026 16:00,27.103358,93.679645,PM2.5,2,80,46
India,Arunachal_Pradesh,Naharlagun,"Naharlagun, Naharlagun - APSPCB",20-03-2026 16:00,27.103358,93.679645,NO2,7,7,7
India,Arunachal_Pradesh,Naharlagun,"Naharlagun, Naharlagun - APSPCB",20-03-2026 16:00,27.103358,93.679645,CO,8,16,13
India,Assam,Byrnihat,"Central Academy for SFS, Byrnihat - PCBA",20-03-2026 16:00,26.071318,91.87488,OZONE,13,31,22
India,Assam,Guwahati,"Railway Colony, Guwahati - PCBA",20-03-2026 16:00,26.181742,91.78063,CO,4,8,7
India,Assam,Nagaon,"Christianpatty, Nagaon - PCBA",20-03-2026 16:00,26.349082,92.68449,NH3,3,4,4
India,Assam,Nagaon,"Christianpatty, Nagaon - PCBA",20-03-2026 16:00,26.349082,92.68449,SO2,5,13,11
India,Assam,Nalbari,"Bata Chowk, Nalbari - PCBA",20-03-2026 16:00,26.446912,91.439057,SO2,NA,NA,NA
India,Assam,Silchar,"Tarapur, Silchar - PCBA",20-03-2026 16:00,24.82827,92.79525,NH3,1,1,1
India,Assam,Silchar,"Tarapur, Silchar - PCBA",20-03-2026 16:00,24.82827,92.79525,SO2,4,7,6
India,Andhra_Pradesh,Vijayawada,"HB Colony, Vijayawada - APPCB",20-03-2026 16:00,16.536107,80.594233,SO2,8,15,12
India,Andhra_Pradesh,Vijayawada,"Kanuru, Vijayawada - APPCB",20-03-2026 16:00,16.486692,80.699436,NH3,5,7,6
India,Andhra_Pradesh,Vijayawada,"Kanuru, Vijayawada - APPCB",20-03-2026 16:00,16.486692,80.699436,SO2,5,23,12
India,Andhra_Pradesh,Vijayawada,"Rajiv Gandhi Park, Vijayawada - APPCB",20-03-2026 16:00,16.509717,80.612222,PM2.5,59,84,69
India,Andhra_Pradesh,Vijayawada,"Rajiv Gandhi Park, Vijayawada - APPCB",20-03-2026 16:00,16.509717,80.612222,NO2,8,34,24
India,Assam,Guwahati,"IITG, Guwahati - PCBA",20-03-2026 16:00,26.2028636,91.70046436,PM10,NA,NA,NA
India,Assam,Guwahati,"IITG, Guwahati - PCBA",20-03-2026 16:00,26.2028636,91.70046436,NH3,5,5,5
India,Assam,Guwahati,"Pan Bazaar, Guwahati - PCBA",20-03-2026 16:00,26.1875,91.744194,PM2.5,15,95,36
India,Assam,Guwahati,"Railway Colony, Guwahati - PCBA",20-03-2026 16:00,26.181742,91.78063,PM10,20,105,43
India,Assam,Guwahati,"Railway Colony, Guwahati - PCBA",20-03-2026 16:00,26.181742,91.78063,NH3,1,1,1
India,Andhra_Pradesh,Chittoor,"Gangineni Cheruvu, Chittoor - APPCB",20-03-2026 16:00,13.20488,79.097889,CO,20,35,24
India,Andhra_Pradesh,Eluru,"District Court, Eluru - APPCB",20-03-2026 16:00,16.711754,81.092095,CO,26,44,31
India,Andhra_Pradesh,Guntur,"Rajendra Nagar North, Guntur - APPCB",20-03-2026 16:00,16.316553,80.413302,PM2.5,43,77,54
India,Andhra_Pradesh,Guntur,"Rajendra Nagar North, Guntur - APPCB",20-03-2026 16:00,16.316553,80.413302,PM10,40,72,51
India,Andhra_Pradesh,Anantapur,"Gulzarpet, Anantapur - APPCB",20-03-2026 16:00,14.675886,77.593027,NO2,18,23,20
India,Andhra_Pradesh,Anantapur,"Gulzarpet, Anantapur - APPCB",20-03-2026 16:00,14.675886,77.593027,CO,18,42,29
India,Andhra_Pradesh,Anantapur,"Gulzarpet, Anantapur - APPCB",20-03-2026 16:00,14.675886,77.593027,OZONE,25,55,41
India,Andhra_Pradesh,Chittoor,"Gangineni Cheruvu, Chittoor - APPCB",20-03-2026 16:00,13.20488,79.097889,PM2.5,47,81,56
India,Assam,Silchar,"Tarapur, Silchar - PCBA",20-03-2026 16:00,24.82827,92.79525,OZONE,2,4,3
India,Assam,Sivasagar,"Girls College, Sivasagar - PCBA",20-03-2026 16:00,26.987634,94.636574,SO2,8,9,9
India,Bihar,Araria,"Kharahiya Basti, Araria - BSPCB",20-03-2026 16:00,26.146529,87.454184,NH3,4,5,4
India,Andhra_Pradesh,Kadapa,"Yerramukkapalli, Kadapa - APPCB",20-03-2026 16:00,14.465052,78.824187,CO,8,24,17
India,Andhra_Pradesh,Machilipatnam,"Srinivas Nagar Colony, Machilipatnam - APPCB",20-03-2026 16:00,16.186555,81.13219,CO,11,74,27
India,Bihar,Araria,"Kharahiya Basti, Araria - BSPCB",20-03-2026 16:00,26.146529,87.454184,CO,17,72,33
India,Bihar,Chhapra,"Darshan Nagar, Chhapra - BSPCB",20-03-2026 16:00,25.7808257,84.7446768,PM2.5,73,467,195
India,Bihar,Chhapra,"Darshan Nagar, Chhapra - BSPCB",20-03-2026 16:00,25.7808257,84.7446768,PM10,103,500,193
India,Bihar,Chhapra,"Darshan Nagar, Chhapra - BSPCB",20-03-2026 16:00,25.7808257,84.7446768,CO,8,16,10
India,Bihar,Gaya,"SFTI Kusdihra, Gaya - BSPCB",20-03-2026 16:00,24.762518,84.982348,PM10,51,77,65
India,Bihar,Gaya,"SFTI Kusdihra, Gaya - BSPCB",20-03-2026 16:00,24.762518,84.982348,NO2,15,31,23
India,Bihar,Manguraha,"Forest Rest House, Manguraha - BSPCB",20-03-2026 16:00,27.308328,84.531742,PM2.5,78,253,112
India,Bihar,Manguraha,"Forest Rest House, Manguraha - BSPCB",20-03-2026 16:00,27.308328,84.531742,CO,32,33,32
India,Bihar,Motihari,"Gandak Colony, Motihari - BSPCB",20-03-2026 16:00,26.63086,84.90051,OZONE,2,3,2
India,Bihar,Munger,"Town Hall, Munger - BSPCB",20-03-2026 16:00,25.376776,86.471523,PM2.5,30,85,56
India,Bihar,Katihar,"Mirchaibari, Katihar - BSPCB",20-03-2026 16:00,25.560083,87.553265,SO2,12,21,18
India,Bihar,Katihar,"Mirchaibari, Katihar - BSPCB",20-03-2026 16:00,25.560083,87.553265,OZONE,4,15,10
India,Bihar,Kishanganj,"SDM Office_Khagra, Kishanganj - BSPCB",20-03-2026 16:00,26.0881305,87.93840336,NO2,9,10,9
India,Bihar,Kishanganj,"SDM Office_Khagra, Kishanganj - BSPCB",20-03-2026 16:00,26.0881305,87.93840336,NH3,3,3,3
India,Bihar,Bhagalpur,"Mayaganj, Bhagalpur - BSPCB",20-03-2026 16:00,25.265194,87.012947,SO2,52,62,57
India,Bihar,Bihar Sharif,"D M Colony, Bihar Sharif - BSPCB",20-03-2026 16:00,25.204762,85.51496,SO2,10,10,10
India,Bihar,Bihar Sharif,"D M Colony, Bihar Sharif - BSPCB",20-03-2026 16:00,25.204762,85.51496,CO,48,71,58
India,Bihar,Bihar Sharif,"D M Colony, Bihar Sharif - BSPCB",20-03-2026 16:00,25.204762,85.51496,OZONE,1,2,2
India,Bihar,Patna,"Govt. High School Shikarpur, Patna - BSPCB",20-03-2026 16:00,25.592539,85.227158,NO2,14,18,16
India,Bihar,Patna,"Govt. High School Shikarpur, Patna - BSPCB",20-03-2026 16:00,25.592539,85.227158,NH3,4,6,5
India,Bihar,Patna,"Govt. High School Shikarpur, Patna - BSPCB",20-03-2026 16:00,25.592539,85.227158,CO,1,44,27
India,Bihar,Patna,"Govt. High School Shikarpur, Patna - BSPCB",20-03-2026 16:00,25.592539,85.227158,OZONE,21,87,71
India,Bihar,Arrah,"New DM Office, Arrah - BSPCB",20-03-2026 16:00,25.5626095,84.663264,SO2,5,6,5
India,Bihar,Arrah,"New DM Office, Arrah - BSPCB",20-03-2026 16:00,25.5626095,84.663264,OZONE,4,50,10
India,Bihar,Bhagalpur,"DM Office_Kachari Chowk, Bhagalpur - BSPCB",20-03-2026 16:00,25.251013,86.989001,PM2.5,57,220,118
India,Bihar,Begusarai,"Lohiyanagar, Begusarai - BSPCB",20-03-2026 16:00,25.42742023,86.13886079,NH3,3,4,4
India,Bihar,Munger,"Town Hall, Munger - BSPCB",20-03-2026 16:00,25.376776,86.471523,OZONE,9,10,10
India,Bihar,Rajgir,"Dangi Tola, Rajgir - BSPCB",20-03-2026 16:00,25.0328,85.41948,NH3,3,3,3
India,Bihar,Saharsa,"Police Line, Saharsa - BSPCB",20-03-2026 16:00,25.892357,86.590325,CO,38,46,42
India,Bihar,Samastipur,"DM Office_Kasipur, Samastipur - BSPCB",20-03-2026 16:00,25.859655,85.77944,PM10,50,182,88
India,Bihar,Sasaram,"Dada Peer, Sasaram - BSPCB",20-03-2026 16:00,24.952822,84.002396,SO2,3,5,4
India,Bihar,Sasaram,"Dada Peer, Sasaram - BSPCB",20-03-2026 16:00,24.952822,84.002396,CO,40,103,70
India,Bihar,Siwan,"Chitragupta Nagar, Siwan - BSPCB",20-03-2026 16:00,26.2271665,84.3570427,PM2.5,38,137,67
India,Bihar,Siwan,"Chitragupta Nagar, Siwan - BSPCB",20-03-2026 16:00,26.2271665,84.3570427,PM10,55,145,91
India,Delhi,Delhi,"Bawana, Delhi - DPCC",20-03-2026 16:00,28.7762,77.051074,NH3,7,9,7
India,Delhi,Delhi,"Burari Crossing, Delhi - IMD",20-03-2026 16:00,28.7256504,77.2011573,CO,12,48,26
India,Delhi,Delhi,"CRRI Mathura Road, Delhi - IMD",20-03-2026 16:00,28.5512005,77.2735737,PM2.5,11,214,52
India,Delhi,Delhi,"Cantonment Area, Delhi - DPCC ",20-03-2026 16:00,28.594169,77.1251,NH3,1,26,10
India,Delhi,Delhi,"Cantonment Area, Delhi - DPCC ",20-03-2026 16:00,28.594169,77.1251,OZONE,1,24,12
India,Delhi,Delhi,"Chandni Chowk, Delhi - IITM",20-03-2026 16:00,28.656756,77.227234,NO2,36,81,56
India,Delhi,Delhi,"Chandni Chowk, Delhi - IITM",20-03-2026 16:00,28.656756,77.227234,SO2,8,11,10
India,Chhattisgarh,Milupara,"Govt. Higher Secondary School, Milupara - CECB",20-03-2026 16:00,22.1910172,83.5197009,CO,NA,NA,NA
India,Chhattisgarh,Raipur,"AIIMS, Raipur - CECB",20-03-2026 16:00,21.258815,81.578979,PM2.5,20,48,33
India,Chhattisgarh,Raipur,"AIIMS, Raipur - CECB",20-03-2026 16:00,21.258815,81.578979,NH3,4,5,4
India,Chhattisgarh,Raipur,"AIIMS, Raipur - CECB",20-03-2026 16:00,21.258815,81.578979,CO,24,43,29
India,Chhattisgarh,Raipur,"AIIMS, Raipur - CECB",20-03-2026 16:00,21.258815,81.578979,OZONE,5,23,10
India,Chhattisgarh,Raipur,"Bhatagaon New ISBT, Raipur - CECB",20-03-2026 16:00,21.219665,81.630094,PM10,15,66,35
India,Chhattisgarh,Raipur,"Bhatagaon New ISBT, Raipur - CECB",20-03-2026 16:00,21.219665,81.630094,CO,25,72,32
India,Delhi,Delhi,"Alipur, Delhi - DPCC",20-03-2026 16:00,28.815329,77.15301,SO2,6,12,8
India,Delhi,Delhi,"Alipur, Delhi - DPCC",20-03-2026 16:00,28.815329,77.15301,CO,30,48,37
India,Delhi,Delhi,"Ashok Vihar, Delhi - DPCC",20-03-2026 16:00,28.695381,77.181665,NO2,21,58,33
India,Delhi,Delhi,"Ashok Vihar, Delhi - DPCC",20-03-2026 16:00,28.695381,77.181665,SO2,14,24,19
India,Delhi,Delhi,"Ashok Vihar, Delhi - DPCC",20-03-2026 16:00,28.695381,77.181665,CO,28,44,35
India,Delhi,Delhi,"Ashok Vihar, Delhi - DPCC",20-03-2026 16:00,28.695381,77.181665,OZONE,2,48,27
India,Delhi,Delhi,"Aya Nagar, Delhi - IMD",20-03-2026 16:00,28.4706914,77.1099364,PM2.5,11,98,46
India,Delhi,Delhi,"Aya Nagar, Delhi - IMD",20-03-2026 16:00,28.4706914,77.1099364,PM10,28,130,65
India,Bihar,Patna,"IGSC Planetarium Complex, Patna - BSPCB",20-03-2026 16:00,25.610369,85.132568,OZONE,48,49,49
India,Bihar,Patna,"Muradpur, Patna - BSPCB",20-03-2026 16:00,25.619651,85.147382,PM2.5,44,100,60
India,Bihar,Patna,"Muradpur, Patna - BSPCB",20-03-2026 16:00,25.619651,85.147382,PM10,126,142,136
India,Bihar,Patna,"Rajbansi Nagar, Patna - BSPCB",20-03-2026 16:00,25.599486,85.113666,CO,2,182,39
India,Bihar,Purnia,"Mariam Nagar, Purnia - BSPCB",20-03-2026 16:00,25.366336,87.117468,SO2,14,17,16
India,Chandigarh,Chandigarh,"Sector 22, Chandigarh - CPCC",20-03-2026 16:00,30.735567,76.775714,SO2,5,10,7
India,Chandigarh,Chandigarh,"Sector 22, Chandigarh - CPCC",20-03-2026 16:00,30.735567,76.775714,CO,59,86,78
India,Chandigarh,Chandigarh,"Sector-53, Chandigarh - CPCC",20-03-2026 16:00,30.719859,76.738637,PM2.5,13,50,24
India,Chandigarh,Chandigarh,"Sector-53, Chandigarh - CPCC",20-03-2026 16:00,30.719859,76.738637,CO,32,50,46
India,Chhattisgarh,Bhilai,"Hathkhoj, Bhilai - CECB",20-03-2026 16:00,21.224231,81.40835,PM10,15,65,40
India,Chhattisgarh,Chhal,"Nawapara SECL Colony, Chhal - CECB",20-03-2026 16:00,22.118125,83.140608,SO2,14,92,47
India,Chhattisgarh,Chhal,"Nawapara SECL Colony, Chhal - CECB",20-03-2026 16:00,22.118125,83.140608,CO,24,62,33
India,Chhattisgarh,Korba,"Urja Nagar, Korba - CECB",20-03-2026 16:00,22.348441,82.549611,SO2,2,21,12
India,Chhattisgarh,Kunjemura,"OP Jindal School, Kunjemura - CECB",20-03-2026 16:00,22.12665,83.483212,PM2.5,31,71,54
India,Chhattisgarh,Raipur,"Siltara Phase-II, Raipur - CECB",20-03-2026 16:00,21.371751,81.664929,SO2,4,27,13
India,Chhattisgarh,Tumidih,"OP Jindal Industrial Park, Tumidih - CECB",20-03-2026 16:00,22.06631475,83.33820077,SO2,5,26,10
India,Chhattisgarh,Milupara,"Govt. Higher Secondary School, Milupara - CECB",20-03-2026 16:00,22.1910172,83.5197009,NO2,NA,NA,NA
India,Delhi,Delhi,"Jahangirpuri, Delhi - DPCC",20-03-2026 16:00,28.73282,77.170633,PM10,28,156,88
India,Delhi,Delhi,"Jawaharlal Nehru Stadium, Delhi - DPCC",20-03-2026 16:00,28.58028,77.233829,PM2.5,30,163,65
India,Delhi,Delhi,"Lodhi Road, Delhi - IMD",20-03-2026 16:00,28.5918245,77.2273074,OZONE,20,69,42
India,Delhi,Delhi,"Major Dhyan Chand National Stadium, Delhi - DPCC",20-03-2026 16:00,28.611281,77.237738,PM2.5,13,160,52
India,Delhi,Delhi,"Major Dhyan Chand National Stadium, Delhi - DPCC",20-03-2026 16:00,28.611281,77.237738,CO,56,84,61
India,Delhi,Delhi,"Major Dhyan Chand National Stadium, Delhi - DPCC",20-03-2026 16:00,28.611281,77.237738,OZONE,1,50,25
India,Delhi,Delhi,"Mandir Marg, Delhi - DPCC",20-03-2026 16:00,28.636429,77.201067,SO2,7,28,21
India,Delhi,Delhi,"Mundka, Delhi - DPCC",20-03-2026 16:00,28.684678,77.076574,PM2.5,13,309,100
India,Delhi,Delhi,"Commonwealth Sports Complex, Delhi - DPCC",20-03-2026 16:00,28.615828,77.271992,NH3,5,7,6
India,Delhi,Delhi,"Commonwealth Sports Complex, Delhi - DPCC",20-03-2026 16:00,28.615828,77.271992,CO,85,96,92
India,Delhi,Delhi,"Dwarka-Sector 8, Delhi - DPCC ",20-03-2026 16:00,28.5710274,77.0719006,NO2,22,55,37
India,Delhi,Delhi,"Dwarka-Sector 8, Delhi - DPCC ",20-03-2026 16:00,28.5710274,77.0719006,SO2,3,22,17
India,Delhi,Delhi,"IGI Airport (T3), Delhi - IMD",20-03-2026 16:00,28.5627763,77.1180053,PM2.5,1,238,53
India,Delhi,Delhi,"IGI Airport (T3), Delhi - IMD",20-03-2026 16:00,28.5627763,77.1180053,PM10,16,159,68
India,Delhi,Delhi,"IGI Airport (T3), Delhi - IMD",20-03-2026 16:00,28.5627763,77.1180053,OZONE,2,31,14
India,Delhi,Delhi,"IGNOU_Maidan Garhi, Delhi - DPCC",20-03-2026 16:00,28.493624,77.201159,NO2,9,16,11
India,Delhi,Delhi,"Talkatora Garden, Delhi - DPCC",20-03-2026 16:00,28.62181,77.1944633,PM2.5,19,156,70
India,Delhi,Delhi,"Talkatora Garden, Delhi - DPCC",20-03-2026 16:00,28.62181,77.1944633,NO2,6,17,11
India,Delhi,Delhi,"Vivek Vihar, Delhi - DPCC",20-03-2026 16:00,28.672342,77.31526,NO2,19,37,27
India,Delhi,Delhi,"Wazirpur, Delhi - DPCC",20-03-2026 16:00,28.699793,77.165453,PM2.5,38,328,91
India,Delhi,Delhi,"Wazirpur, Delhi - DPCC",20-03-2026 16:00,28.699793,77.165453,PM10,34,173,84
India,Delhi,Delhi,"Wazirpur, Delhi - DPCC",20-03-2026 16:00,28.699793,77.165453,SO2,15,27,19
India,Gujarat,Ahmedabad,"Chandkheda, Ahmedabad - IITM",20-03-2026 16:00,23.107969,72.574648,NO2,8,22,14
India,Gujarat,Ahmedabad,"Chandkheda, Ahmedabad - IITM",20-03-2026 16:00,23.107969,72.574648,SO2,1,11,5
India,Delhi,Delhi,"Pusa, Delhi - DPCC",20-03-2026 16:00,28.639652,77.146275,NO2,NA,NA,NA
India,Delhi,Delhi,"Pusa, Delhi - DPCC",20-03-2026 16:00,28.639652,77.146275,CO,48,102,90
India,Delhi,Delhi,"Pusa, Delhi - IMD",20-03-2026 16:00,28.63611,77.173332,PM10,20,123,52
India,Delhi,Delhi,"R K Puram, Delhi - DPCC",20-03-2026 16:00,28.563262,77.186937,OZONE,3,40,19
India,Delhi,Delhi,"Rohini, Delhi - DPCC",20-03-2026 16:00,28.732528,77.11992,NO2,6,26,17
India,Delhi,Delhi,"Shadipur, Delhi - CPCB",20-03-2026 16:00,28.6514781,77.1473105,PM2.5,26,89,56
India,Delhi,Delhi,"Shadipur, Delhi - CPCB",20-03-2026 16:00,28.6514781,77.1473105,NO2,38,151,57
India,Delhi,Delhi,"IHBAS, Dilshad Garden, Delhi - CPCB",20-03-2026 16:00,28.6811736,77.3025234,NO2,24,89,64
India,Delhi,Delhi,"IIT Delhi, Delhi - IITM",20-03-2026 16:00,28.54246,77.191651,PM2.5,14,162,50
India,Delhi,Delhi,"IIT Delhi, Delhi - IITM",20-03-2026 16:00,28.54246,77.191651,OZONE,6,29,18
India,Delhi,Delhi,"ITO, Delhi - CPCB",20-03-2026 16:00,28.628624,77.24106,PM2.5,24,129,60
India,Delhi,Delhi,"ITO, Delhi - CPCB",20-03-2026 16:00,28.628624,77.24106,PM10,21,95,53
India,Delhi,Delhi,"ITO, Delhi - CPCB",20-03-2026 16:00,28.628624,77.24106,NO2,21,92,49
India,Delhi,Delhi,"JNU, Delhi - DPCC",20-03-2026 16:00,28.540721,77.168544,PM10,22,116,66
India,Delhi,Delhi,"Najafgarh, Delhi - DPCC",20-03-2026 16:00,28.570173,76.933762,NO2,NA,NA,NA
India,Delhi,Delhi,"Najafgarh, Delhi - DPCC",20-03-2026 16:00,28.570173,76.933762,CO,5,26,9
India,Delhi,Delhi,"Narela, Delhi - DPCC",20-03-2026 16:00,28.822836,77.101981,NO2,9,22,15
India,Delhi,Delhi,"Nehru Nagar, Delhi - DPCC",20-03-2026 16:00,28.56789,77.250515,PM10,33,127,68
India,Delhi,Delhi,"Nehru Nagar, Delhi - DPCC",20-03-2026 16:00,28.56789,77.250515,SO2,6,108,14
India,Delhi,Delhi,"Sirifort, Delhi - CPCB",20-03-2026 16:00,28.5504249,77.2159377,NO2,36,44,40
India,Delhi,Delhi,"Sirifort, Delhi - CPCB",20-03-2026 16:00,28.5504249,77.2159377,SO2,26,32,28
India,Delhi,Delhi,"Sirifort, Delhi - CPCB",20-03-2026 16:00,28.5504249,77.2159377,OZONE,7,19,10
India,Delhi,Delhi,"Sonia Vihar, Delhi - DPCC",20-03-2026 16:00,28.710508,77.249485,PM10,24,131,59
India,Delhi,Delhi,"Sonia Vihar, Delhi - DPCC",20-03-2026 16:00,28.710508,77.249485,NH3,7,12,9
India,Delhi,Delhi,"North Campus, DU, Delhi - IMD",20-03-2026 16:00,28.6573814,77.1585447,PM10,15,142,70
India,Delhi,Delhi,"Patparganj, Delhi - DPCC",20-03-2026 16:00,28.623763,77.287209,PM2.5,37,240,80
India,Delhi,Delhi,"Punjabi Bagh, Delhi - DPCC",20-03-2026 16:00,28.674045,77.131023,PM2.5,28,303,78
India,Delhi,Delhi,"NSUT Jaffarpur, Delhi - DPCC",20-03-2026 16:00,28.594004,76.909423,PM2.5,1,226,90
India,Delhi,Delhi,"NSUT Jaffarpur, Delhi - DPCC",20-03-2026 16:00,28.594004,76.909423,PM10,3,206,84
India,Haryana,Bhiwani,"H.B. Colony, Bhiwani - HSPCB",20-03-2026 16:00,28.806223,76.141105,CO,10,18,16
India,Haryana,Charkhi Dadri,"Mini Secretariat, Charkhi Dadri - HSPCB",20-03-2026 16:00,28.593883,76.270653,PM2.5,15,231,87
India,Haryana,Charkhi Dadri,"Mini Secretariat, Charkhi Dadri - HSPCB",20-03-2026 16:00,28.593883,76.270653,NH3,5,7,6
India,Haryana,Charkhi Dadri,"Mini Secretariat, Charkhi Dadri - HSPCB",20-03-2026 16:00,28.593883,76.270653,CO,64,112,94
India,Haryana,Dharuhera,"Municipal Corporation Office, Dharuhera -  HSPCB",20-03-2026 16:00,28.2068,76.7997,PM10,50,117,87
India,Haryana,Dharuhera,"Municipal Corporation Office, Dharuhera -  HSPCB",20-03-2026 16:00,28.2068,76.7997,OZONE,23,39,26
India,Haryana,Faridabad,"New Industrial Town, Faridabad - HSPCB",20-03-2026 16:00,28.39072,77.30059,CO,10,13,12
India,Gujarat,Gandhinagar,"GIFT City, Gandhinagar - IITM",20-03-2026 16:00,23.163798,72.677768,CO,45,90,65
India,Gujarat,Gandhinagar,"IIPHG Lekawada, Gandhinagar - IITM",20-03-2026 16:00,23.243639,72.68994,SO2,2,4,3
India,Gujarat,Gandhinagar,"IIPHG Lekawada, Gandhinagar - IITM",20-03-2026 16:00,23.243639,72.68994,CO,1,30,14
India,Gujarat,Gandhinagar,"IIPHG Lekawada, Gandhinagar - IITM",20-03-2026 16:00,23.243639,72.68994,OZONE,1,24,13
India,Gujarat,Gandhinagar,"Sector-10, Gandhinagar - GPCB",20-03-2026 16:00,23.221714,72.654328,NO2,23,28,26
India,Gujarat,Rajkot,"Mavdi, Rajkot - Nexteng Enviro ",20-03-2026 16:00,22.248853,70.776774,CO,39,44,41
India,Gujarat,Ahmedabad,"Gyaspur, Ahmedabad - IITM",20-03-2026 16:00,22.977134,72.553024,PM2.5,21,145,54
India,Gujarat,Ahmedabad,"Gyaspur, Ahmedabad - IITM",20-03-2026 16:00,22.977134,72.553024,PM10,48,269,110
India,Gujarat,Ahmedabad,"Gyaspur, Ahmedabad - IITM",20-03-2026 16:00,22.977134,72.553024,NO2,44,140,85
India,Gujarat,Ahmedabad,"Maninagar, Ahmedabad - GPCB",20-03-2026 16:00,23.002657,72.591912,PM2.5,36,341,124
India,Gujarat,Ahmedabad,"Raikhad, Ahmedabad - IITM",20-03-2026 16:00,23.020509,72.579261,NH3,14,21,17
India,Gujarat,Surat,"Science Center, Surat - SMC",20-03-2026 16:00,21.170046,72.795405,PM10,29,417,97
India,Gujarat,Vadodara,"Bapunagar, Vadodara - Nexteng Enviro",20-03-2026 16:00,22.320153,73.216285,PM2.5,10,160,63
India,Gujarat,Vadodara,"Bapunagar, Vadodara - Nexteng Enviro",20-03-2026 16:00,22.320153,73.216285,PM10,18,418,93
India,Gujarat,Vapi,"Phase-1 GIDC, Vapi - GPCB",20-03-2026 16:00,20.362421,72.918013,NH3,2,3,3
India,Gujarat,Ahmedabad,"SAC ISRO Satellite, Ahmedabad - IITM",20-03-2026 16:00,23.023389,72.515201,SO2,7,33,13
India,Gujarat,Ahmedabad,"SVPI Airport Hansol, Ahmedabad - IITM",20-03-2026 16:00,23.076793,72.627874,NH3,3,8,5
India,Gujarat,Ankleshwar,"GIDC, Ankleshwar - GPCB",20-03-2026 16:00,21.613267,73.010555,NO2,NA,NA,NA
India,Haryana,Faridabad,"Sector 30, Faridabad - HSPCB",20-03-2026 16:00,28.4417,77.3217,PM2.5,121,141,129
India,Haryana,Faridabad,"Sector 30, Faridabad - HSPCB",20-03-2026 16:00,28.4417,77.3217,CO,58,66,62
India,Haryana,Fatehabad,"Huda Sector, Fatehabad - HSPCB",20-03-2026 16:00,29.503664,75.467934,PM10,28,202,68
India,Gujarat,Bhavnagar,"Vidhyanagar, Bhavnagar - Nexteng Enviro",20-03-2026 16:00,21.755417,72.139056,PM10,27,246,76
India,Gujarat,Gandhinagar,"GIFT City, Gandhinagar - IITM",20-03-2026 16:00,23.163798,72.677768,NO2,17,36,22
India,Haryana,Ballabgarh,"Nathu Colony, Ballabgarh - HSPCB",20-03-2026 16:00,28.3419248,77.319699,PM2.5,17,420,82
India,Haryana,Ballabgarh,"Nathu Colony, Ballabgarh - HSPCB",20-03-2026 16:00,28.3419248,77.319699,PM10,71,186,117
India,Haryana,Ballabgarh,"Nathu Colony, Ballabgarh - HSPCB",20-03-2026 16:00,28.3419248,77.319699,CO,16,48,27
India,Haryana,Gurugram,"Sector-51, Gurugram - HSPCB",20-03-2026 16:00,28.4227,77.0667,NO2,4,10,6
India,Haryana,Gurugram,"Teri Gram, Gurugram - HSPCB",20-03-2026 16:00,28.4275,77.1465,PM2.5,NA,NA,NA
India,Haryana,Gurugram,"Vikas Sadan, Gurugram - HSPCB",20-03-2026 16:00,28.4501238,77.0263051,NO2,9,45,26
India,Haryana,Gurugram,"Vikas Sadan, Gurugram - HSPCB",20-03-2026 16:00,28.4501238,77.0263051,CO,64,114,92
India,Haryana,Gurugram,"Vikas Sadan, Gurugram - HSPCB",20-03-2026 16:00,28.4501238,77.0263051,OZONE,4,31,24
India,Haryana,Hisar,"Urban Estate-II, Hisar - HSPCB",20-03-2026 16:00,29.14056,75.744941,NO2,26,27,26
India,Haryana,Hisar,"Urban Estate-II, Hisar - HSPCB",20-03-2026 16:00,29.14056,75.744941,NH3,10,11,11
India,Haryana,Jind,"Police Lines, Jind - HSPCB",20-03-2026 16:00,29.307814,76.337619,PM10,20,61,38
India,Haryana,Kaithal,"Rishi Nagar, Kaithal - HSPCB",20-03-2026 16:00,29.8006,76.4155,PM10,18,63,36
India,Haryana,Kaithal,"Rishi Nagar, Kaithal - HSPCB",20-03-2026 16:00,29.8006,76.4155,NH3,3,6,6
India,Haryana,Karnal,"Sector-12, Karnal - HSPCB",20-03-2026 16:00,29.6953,77.0027,NO2,6,7,6
India,Haryana,Karnal,"Sector-12, Karnal - HSPCB",20-03-2026 16:00,29.6953,77.0027,OZONE,11,31,18
India,Haryana,Kurukshetra,"Sector-7, Kurukshetra - HSPCB",20-03-2026 16:00,29.966942,76.875879,PM2.5,39,80,59
India,Karnataka,Bengaluru,"BWSSB Kadabesanahalli, Bengaluru - CPCB",20-03-2026 16:00,12.9352049,77.6814488,OZONE,15,69,50
India,Karnataka,Bengaluru,"Hebbal, Bengaluru - KSPCB",20-03-2026 16:00,13.029152,77.585901,PM2.5,34,310,94
India,Karnataka,Bengaluru,"Hebbal, Bengaluru - KSPCB",20-03-2026 16:00,13.029152,77.585901,PM10,39,158,84
India,Karnataka,Bengaluru,"Hebbal, Bengaluru - KSPCB",20-03-2026 16:00,13.029152,77.585901,SO2,5,20,12
India,Karnataka,Bengaluru,"Hombegowda Nagar, Bengaluru - KSPCB",20-03-2026 16:00,12.938539,77.5901,PM10,34,132,73
India,Karnataka,Bengaluru,"Hombegowda Nagar, Bengaluru - KSPCB",20-03-2026 16:00,12.938539,77.5901,NH3,4,19,6
India,Karnataka,Bengaluru,"Hombegowda Nagar, Bengaluru - KSPCB",20-03-2026 16:00,12.938539,77.5901,OZONE,11,256,254
India,Karnataka,Bengaluru,"Jayanagar 5th Block, Bengaluru - KSPCB",20-03-2026 16:00,12.920984,77.584908,PM10,30,156,75
India,Karnataka,Bengaluru,"Jayanagar 5th Block, Bengaluru - KSPCB",20-03-2026 16:00,12.920984,77.584908,CO,4,108,21
India,Haryana,Palwal,"Shyam Nagar, Palwal - HSPCB",20-03-2026 16:00,28.1485564,77.3320667,NH3,9,9,9
India,Haryana,Panchgaon,"Amity University, Panchgaon - IITM",20-03-2026 16:00,28.3153,76.9143,OZONE,1,50,34
India,Haryana,Panchkula,"Sector-6, Panchkula - HSPCB ",20-03-2026 16:00,30.7057778,76.85318056,SO2,13,14,14
India,Haryana,Panipat,"Sector-18, Panipat - HSPCB",20-03-2026 16:00,29.432304,76.972765,PM10,NA,NA,NA
India,Haryana,Panipat,"Sector-18, Panipat - HSPCB",20-03-2026 16:00,29.432304,76.972765,SO2,NA,NA,NA
India,Jharkhand,Jorapokhar,"Tata Stadium, Jorapokhar - JSPCB",20-03-2026 16:00,23.707909,86.41467,PM2.5,NA,NA,NA
India,Jharkhand,Jorapokhar,"Tata Stadium, Jorapokhar - JSPCB",20-03-2026 16:00,23.707909,86.41467,SO2,NA,NA,NA
India,Jharkhand,Jorapokhar,"Tata Stadium, Jorapokhar - JSPCB",20-03-2026 16:00,23.707909,86.41467,CO,40,40,40
India,Karnataka,Bagalkot,"Vidayagiri, Bagalkot - KSPCB",20-03-2026 16:00,16.172806,75.659694,PM2.5,18,36,35
India,Karnataka,Bagalkot,"Vidayagiri, Bagalkot - KSPCB",20-03-2026 16:00,16.172806,75.659694,NO2,6,12,12
India,Karnataka,Bagalkot,"Vidayagiri, Bagalkot - KSPCB",20-03-2026 16:00,16.172806,75.659694,OZONE,6,13,12
India,Haryana,Rohtak,"MD University, Rohtak - HSPCB",20-03-2026 16:00,28.52123,76.37138,NO2,10,12,11
India,Haryana,Rohtak,"MD University, Rohtak - HSPCB",20-03-2026 16:00,28.52123,76.37138,SO2,10,14,12
India,Haryana,Rohtak,"MD University, Rohtak - HSPCB",20-03-2026 16:00,28.52123,76.37138,CO,30,36,34
India,Haryana,Sirsa,"F-Block, Sirsa - HSPCB",20-03-2026 16:00,29.5364,75.0158,CO,32,60,42
India,Haryana,Sonipat,"Murthal, Sonipat - HSPCB",20-03-2026 16:00,29.0272,77.0621,NO2,12,13,12
India,Haryana,Yamuna Nagar,"Gobind Pura, Yamuna Nagar - HSPCB",20-03-2026 16:00,30.1480566,77.2893471,NO2,11,21,16
India,Himachal Pradesh,Baddi,"HIMUDA Complex Phase-1, Baddi - HPPCB",20-03-2026 16:00,30.943887,76.801991,NO2,5,34,17
India,Himachal Pradesh,Baddi,"HIMUDA Complex Phase-1, Baddi - HPPCB",20-03-2026 16:00,30.943887,76.801991,SO2,23,81,37
India,Himachal Pradesh,Baddi,"HIMUDA Complex Phase-1, Baddi - HPPCB",20-03-2026 16:00,30.943887,76.801991,OZONE,10,58,38
India,Haryana,Sonipat,"Murthal, Sonipat - HSPCB",20-03-2026 16:00,29.0272,77.0621,NH3,21,21,21
India,Haryana,Sonipat,"Murthal, Sonipat - HSPCB",20-03-2026 16:00,29.0272,77.0621,SO2,4,17,8
India,Haryana,Sonipat,"Murthal, Sonipat - HSPCB",20-03-2026 16:00,29.0272,77.0621,OZONE,25,26,26
India,Haryana,Yamuna Nagar,"Gobind Pura, Yamuna Nagar - HSPCB",20-03-2026 16:00,30.1480566,77.2893471,PM2.5,38,500,104
India,Haryana,Kurukshetra,"Sector-7, Kurukshetra - HSPCB",20-03-2026 16:00,29.966942,76.875879,OZONE,11,32,18
India,Haryana,Manesar,"Sector-2 IMT, Manesar - HSPCB",20-03-2026 16:00,28.360699,76.93609,NH3,9,11,9
India,Jammu_and_Kashmir,Srinagar,"Khunmoh, Srinagar - JKPCC",20-03-2026 16:00,34.06313,74.96017,NO2,NA,NA,NA
India,Jammu_and_Kashmir,Srinagar,"Rajbagh, Srinagar - JKPCC",20-03-2026 16:00,34.066206,74.81982,CO,10,34,17
India,Karnataka,Dharwad,"Kalabhavan, Dharwad - KSPCB",20-03-2026 16:00,15.459706,75.008381,SO2,7,8,8
India,Karnataka,Hubballi,"Lingaraj Nagar, Hubballi - KSPCB",20-03-2026 16:00,15.3714823,75.1160168,PM10,46,58,49
India,Karnataka,Hubballi,"Lingaraj Nagar, Hubballi - KSPCB",20-03-2026 16:00,15.3714823,75.1160168,NH3,1,2,1
India,Karnataka,Hubballi,"Lingaraj Nagar, Hubballi - KSPCB",20-03-2026 16:00,15.3714823,75.1160168,CO,8,26,15
India,Karnataka,Hubballi,"Lingaraj Nagar, Hubballi - KSPCB",20-03-2026 16:00,15.3714823,75.1160168,OZONE,29,35,32
India,Karnataka,Kalaburagi,"Mahatma Basaveswar Colony, Kalaburgi - KSPCB",20-03-2026 16:00,17.336318,76.847397,PM2.5,NA,NA,NA
India,Karnataka,Madikeri,"Stuart Hill, Madikeri - KSPCB",20-03-2026 16:00,12.415911,75.73505,PM2.5,31,70,49
India,Karnataka,Mangalore,"Kadri, Mangalore - KSPCB",20-03-2026 16:00,12.88925,74.853,PM2.5,29,67,43
India,Karnataka,Bengaluru,"Jigani, Bengaluru - KSPCB",20-03-2026 16:00,12.7816279,77.6299145,OZONE,NA,NA,NA
India,Karnataka,Bengaluru,"Shivapura_Peenya, Bengaluru - KSPCB",20-03-2026 16:00,13.0246342,77.5080115,PM2.5,28,39,33
India,Karnataka,Bengaluru,"Silk Board, Bengaluru - KSPCB",20-03-2026 16:00,12.917348,77.622813,PM10,45,347,147
India,Karnataka,Bengaluru,"Silk Board, Bengaluru - KSPCB",20-03-2026 16:00,12.917348,77.622813,NO2,7,57,25
India,Karnataka,Chamarajanagar,"Urban, Chamarajanagar - KSPCB",20-03-2026 16:00,11.55358,76.55521,PM2.5,19,68,51
India,Karnataka,Chikkaballapur,"Chikkaballapur Rural, Chikkaballapur - KSPCB",20-03-2026 16:00,13.428828,77.731418,PM10,21,48,33
India,Karnataka,Chikkaballapur,"Chikkaballapur Rural, Chikkaballapur - KSPCB",20-03-2026 16:00,13.428828,77.731418,SO2,7,11,9
India,Kerala,Thrissur,"Corporation Ground, Thrissur - Kerala PCB",20-03-2026 16:00,10.5324,76.2159,CO,8,12,10
India,Madhya Pradesh,Bhopal,"Idgah Hills, Bhopal - MPPCB",20-03-2026 16:00,23.264759,77.381568,NO2,16,44,24
India,Madhya Pradesh,Bhopal,"Paryavaran Parisar, Bhopal - MPPCB",20-03-2026 16:00,23.210494,77.425409,PM2.5,8,92,39
